IATA_ID,Name,Updated Name,WMO_ID,MSC_ID,Latitude,Longitude,Elevation(m),Data_Provider,Dataset/Network,AUTO/MAN,Province/Territory
CAAW,SHEARWATER RCS,Shearwater Rcs,71264,8205092,44.62984,-63.51329,25.2,MSC,CA,AUTO,Nova Scotia
CABF,BURGEO NL,Burgeo Nl,71152,8400801,47.613,-57.6103,8.7,MSC,CA,AUTO,Newfoundland and Labrador
CABH,WINTERLAND BRANCH HILL,Winterland Branch Hill,73080,8404242,47.136501,-55.326322,30.26,MSC,CA,AUTO,Newfoundland and Labrador
CABR,BEDFORD RANGE,Bedford Range,71325,8200574,44.745555,-63.660278,10,DND,CA,AUTO,Nova Scotia
CACM,CORMACK RCS,Cormack Rcs,71367,8401295,49.322,-57.3934,167.4,MSC,CA,AUTO,Newfoundland and Labrador
CACP,BACCARO PT,Baccaro Pt,71920,8200255,43.450862,-65.471646,4.825,MSC,CA,AUTO,Nova Scotia
CACQ,MIRAMICHI RCS,Miramichi Rcs,71744,8100989,47.0094,-65.465,31.5,MSC,CA,AUTO,New Brunswick
CADL,DANIEL'S HARBOUR,Daniel'S Harbour,73024,8401405,50.236388,-57.581111,25,MSC,CA,AUTO,Newfoundland and Labrador
CADN,DOAKTOWN AUTO RCS,Doaktown Auto Rcs,71038,8101201,46.58525,-66.009833,41.3,MSC,CA,AUTO,New Brunswick
CADS,ST LAWRENCE,St Lawrence,71110,8403619,46.9167,-55.3833,50.5,MSC,CA,AUTO,Newfoundland and Labrador
CAEI,ESKASONI FIRST NATION,Eskasoni First Nation,71175,8201780,45.9206,-60.6469,23.1,MSC,CA,AUTO,Nova Scotia
CAFC,FREDERICTON CDA CS,Fredericton Cda Cs,71668,8101605,45.920357,-66.609116,34.355,MSC,CA,AUTO,New Brunswick
CAFY,FUNDY PARK (ALMA) CS,Fundy Park (Alma) Cs,71191,8101746,45.597177,-64.953136,42.5,MSC,CA,AUTO,New Brunswick
CAGL,COLLEGEVILLE AUTO,Collegeville Auto,71698,8201001,45.490194,-62.016167,78.2,MSC,CA,AUTO,Nova Scotia
CAHD,HALIFAX DOCKYARD,fort macleod Agcm,71328,8202240,44.655277,-63.575833,5,DND,CA,AUTO,Nova Scotia
CAHK,HALIFAX KOOTENAY,Halifax Kootenay,71326,8202252,44.5875,-63.55,63.5,DND,CA,AUTO,Nova Scotia
CAHR,HARRINGTON CDA CS,Harrington Cda Cs,71350,830P001,46.34378,-63.16974,53.2,MSC,CA,AUTO,Prince Edward Island
CAHT,CHETICAMP HIGHLANDS NATIONAL PARK,Cheticamp Highlands National Park,73023,8200828,46.65112,-60.95466,17,MSC,CA,AUTO,Nova Scotia
CAHV,HAPPY VALLEY - GOOSE BAY,Happy Valley - Goose Bay,73120,8501915,53.306394,-60.362642,39.7,MSC,CA,AUTO,Newfoundland and Labrador
CAHW,HALIFAX WINDSOR PARK,Halifax Windsor Park,71327,8202255,44.656944,-63.608056,56.5,DND,CA,AUTO,Nova Scotia
CAJT,STEPHENVILLE RCS,Stephenville Rcs,71159,8403820,48.5614,-58.5661,60,MSC,CA,AUTO,Newfoundland and Labrador
CAJW,ST JOHNS WEST CLIMATE,St Johns West Climate,71250,8403603,47.5134,-52.7833,110,MSC,CA,AUTO,Newfoundland and Labrador
CAKC,KOUCHIBOUGUAC,Kouchibouguac,71670,8102326,46.789277,-65.013056,22.5,MSC,CA,AUTO,New Brunswick
CAMR,MILLERTOWN CLIMATE,Millertown Climate,71856,8402757,48.8167,-56.5344,214,MSC,CA,AUTO,Newfoundland and Labrador
CAMS,MECHANIC SETTLEMENT,Mechanic Settlement,71787,8102848,45.693611,-65.165,404.3,MSC,CA,AUTO,New Brunswick
CANH,STANHOPE,Stanhope,,8300590,46.415013,-63.075932,2.3,MSC,CA,AUTO,Prince Edward Island
CANR,ALDERSVILLE,Aldersville,73081,8204020,44.827083,-64.509025,238.5,MSC,CA,AUTO,Nova Scotia
CAOH,UPPER STEWIACKE RCS,Upper Stewiacke Rcs,71753,8204193,45.233055,-63.055278,25.3,MSC,CA,AUTO,Nova Scotia
CAOS,OSBORNE HEAD,Osborne Head,71324,8204190,44.612777,-63.4225,30,DND,CA,AUTO,Nova Scotia
CAPB,PORT-AUX-BASQUES,Port-Aux-Basques,73026,8402980,47.573416,-59.153094,41.2,MSC,CA,AUTO,Newfoundland and Labrador
CAPR,PARRSBORO,Parrsboro,71493,8204402,45.413366,-64.346317,30.89,MSC,CA,AUTO,Nova Scotia
CAQY,SYDNEY CS,Sydney Cs,71758,8205702,46.1633,-60.0417,63.5,MSC,CA,AUTO,Nova Scotia
CARP,RED PINES,Red Pines,71634,8104295,47.439563,-65.597925,125.5,MSC,CA,AUTO,New Brunswick
CASB,SABLE ISLAND,Sable Island,73025,8204708,43.93145,-60.00837,6.3,MSC,CA,AUTO,Nova Scotia
CASF,SUSSEX FOUR CORNERS,Sussex Four Corners,71656,8105210,45.741666,-65.529167,59.4,MSC,CA,AUTO,New Brunswick
CAUU,LOUISBOURG,Louisbourg,71596,8203163,45.90167,-59.99611,16.5,MSC,CA,AUTO,Nova Scotia
CAVA,BONAVISTA,Bonavista,71178,8400601,48.667316,-53.112173,26,MSC,CA,AUTO,Newfoundland and Labrador
CAWR,WRECKHOUSE,Wreckhouse,71180,8404343,47.713697,-59.306315,33.7,MSC,CA,AUTO,Newfoundland and Labrador
CBAR,NICHOLSON PENINSULA,Nicholson Peninsula,73230,2202751,69.92551,-128.97344,88,DND,DND-AWOS,AUTO,Northwest Territories
CBBC,Bella Bella Campbell Island,Bella Bella Campbell Island,71582,1060815,52.18512,-128.1568,43,NAV CANADA,NC-AWOS,AUTO,British Columbia
CCPY,PELLY RANCH FORT SELKIRK,Pelly Ranch Fort Selkirk,73013,2100881,62.833388,-137.312242,443.276,MSC,CA,AUTO,Yukon
CEQI,YARMOUTH RCS,Yarmouth Rcs,71884,8206491,43.830861,-66.08807,37.564,MSC,CA,AUTO,Nova Scotia
CERM,EDMUNDSTON,Edmundston,71590,8101303,47.41665,-68.324749,156.313,MSC,CA,AUTO,New Brunswick
CERU,ATLANTIC EER (New Ross ERU),Atlantic Eer (New Ross Eru),,8202195,44.7278,-64.4561,135,MSC,CA,AUTO,Nova Scotia
CESB,SHELBURNE SANDY POINT,Shelburne Sandy Point,73015,8205130,43.753027,-65.307917,47.525,MSC,CA,AUTO,Nova Scotia
CEWD,WOODSTOCK NEWBRIDGE,Woodstock Newbridge,71606,8105603,46.152229,-67.542653,148.2,MSC,CA,AUTO,New Brunswick
CFOX,BRAY ISLAND,Bray Island,73232,2400561,69.22389,-77.23028,15,DND,DND-AWOS,AUTO,Nunavut
CGAH,LA GRANDE IV,La Grande Iv,71823,7093GJ5,53.757213,-73.678642,303.022,MSC,CA,AUTO,Quebec
CGBC,BAIE-COMEAU,Baie-Comeau,71890,7040442,49.13507,-68.202461,21.933,MSC,CA,AUTO,Quebec
CGCH,CHIBOUGAMAU-CHAPAIS,Chibougamau-Chapais,73011,7091410,49.777307,-74.530384,389.836,MSC,CA,AUTO,Quebec
CGCL,CAUSAPSCAL AIRPORT,Causapscal Airport,73005,7051201,48.308789,-67.252754,127.91,MSC,CA,AUTO,Quebec
CGGA,GASPE AIRPORT,Gaspe Airport,73116,7052603,48.776738,-64.479393,36.072,MSC,CA,AUTO,Quebec
CGKM,SCHEFFERVILLE COTE-NORD,Schefferville Cote-Nord,73075,7117824,54.802639,-66.804488,519.337,MSC,CA,AUTO,Quebec
CGMG,MATAGAMI,Matagami,71821,7094637,49.757871,-77.793226,281.484,MSC,CA,AUTO,Quebec
CGRQ,TROIS RIVIERES,Trois Rivieres,71729,7018563,46.359328,-72.67593,63,MSC,CA,AUTO,Quebec
CGSA,SAINT-CAMILLE-DE-LELLIS,Saint-Camille-De-Lellis,73105,7026930,46.494686,-70.207442,404.083,MSC,CA,AUTO,Quebec
CGVO,VAL-D'OR,Val-D'Or,71725,7098603,48.056548,-77.78658,338.952,MSC,CA,AUTO,Quebec
CMFJ,KUUJJUARAPIK,Kuujjuarapik,71615,7103539,55.369504,-77.629143,31.729,MSC,CA,AUTO,Quebec
CMFM,FORET MONTMORENCY RCS,Foret Montmorency Rcs,71212,7042395,47.322593,-71.148281,673.105,MSC,CA,AUTO,Quebec
CMFX,SALLUIT,Salluit,71641,7117800,62.17945,-75.6703,229,MSC,CA,AUTO,Quebec
CMGB,GRANBY,Granby,,7022802,45.372631,-72.774189,88.232,MSC,CA,AUTO,Quebec
CMGZ,GRANDES BERGERONNES,Grandes Bergeronnes,71942,7042845,48.274529,-69.543661,59.238,MSC,CA,AUTO,Quebec
CMIN,PARC NATIONAL DES PINGUALUIT,Parc National Des Pingualuit,71976,7115800,61.31283,-73.668412,501.578,MSC,CA,AUTO,Quebec
CMJI,MONT-JOLI,Mont-Joli,71658,7055122,48.605193,-68.195657,57.608,MSC,CA,AUTO,Quebec
CMJK,INUKJUAK,Inukjuak,71907,710S005,58.4673,-78.0787,25,MSC,CA,AUTO,Quebec
CMJN,NEW RICHMOND EAST,New Richmond East,71659,7055440,48.156544,-65.84193,4.177,MSC,CA,AUTO,Quebec
CMLU,LEMIEUX,Lemieux,71616,701Q009,46.303728,-72.060519,94.693,MSC,CA,AUTO,Quebec
CMMY,SAINT-MICHEL-DES-SAINTS,Saint-Michel-Des-Saints,71737,7077571,46.815567,-74.094017,430.132,MSC,CA,AUTO,Quebec
CMNT,NATASHQUAN AIRPORT,Natashquan Airport,71813,7045401,50.190066,-61.794219,10.892,MSC,CA,AUTO,Quebec
CMRF,RIVIERE AUX FEUILLES,Riviere Aux Feuilles,71743,7116505,57.909731,-72.976014,171.257,MSC,CA,AUTO,Quebec
CMSI,SAINT-GERMAIN-DE-GRANTHAM,Saint-Germain-De-Grantham,71967,7027470,45.825353,-72.536979,78.391,MSC,CA,AUTO,Quebec
CMTH,THETFORD MINES RCS,Thetford Mines Rcs,71494,7028442,46.049134,-71.266448,431.305,MSC,CA,AUTO,Quebec
CMUS,NANTES,Nantes,73115,7023681,45.606368,-70.932738,476.898,MSC,CA,AUTO,Quebec
CNBB,KUGAARUK CLIMATE,Kugaaruk Climate,71407,2303094,68.53743,-89.788915,17.6,MSC,CA,AUTO,Nunavut
CNBI,BATHURST INLET,Bathurst Inlet,71874,2300551,66.837724,-108.014693,6.982,MSC,CA,AUTO,Nunavut
CNCD,KINNGAIT,Kinngait,71575,2400636,64.230626,-76.530694,50.569,MSC,CA,AUTO,Nunavut
CNCN,CLINTON,Clinton,71474,1161663,51.144555,-121.504555,1060,MSC,CA,AUTO,British Columbia
CNCO,KUGLUKTUK CLIMATE,Kugluktuk Climate,71332,2300904,67.8172,-115.1353,24.4,MSC,CA,AUTO,Nunavut
CNDT,POND INLET CLIMATE,Pond Inlet Climate,71576,2403204,72.69313,-77.95735,66.164,MSC,CA,AUTO,Nunavut
CNEK,EUREKA CLIMATE,Eureka Climate,71613,2401199,79.9892,-85.9339,11,MSC,CA,AUTO,Nunavut
CNES,EDMONTON SOUTH CAMPUS,Edmonton South Campus,,3012220,53.490014,-113.537778,670,GovAB,CA,AUTO,Alberta
CNFR,FORT ROSS,Fort Ross,71629,2402051,72.018061,-94.200462,9.255,MSC,CA,AUTO,Nunavut
CNGC,GRISE FIORD CLIMATE,Grise Fiord Climate,71971,2402351,76.422476,-82.90115,35.665,MSC,CA,AUTO,Nunavut
CNLB,LINDBERGH AGDM,Lindbergh Agdm,71567,3013921,53.942778,-110.578889,630,GovAB,CA,AUTO,Alberta
CNLD,LEEDALE AGDM,Leedale Agdm,71565,3023740,52.553056,-114.4725,947,GovAB,CA,AUTO,Alberta
CNNR,NIER AGDM,Nier Agdm,71495,3034795,51.369444,-114.099167,1145,GovAB,CA,AUTO,Alberta
CNPK,PEKISKO,Pekisko,71669,3055119,50.368511,-114.415461,1396.443,MSC,CA,AUTO,Alberta
CNPL,CAPE LIVERPOOL,Cape Liverpool,76000,2400675,73.668041,-78.294694,3.886,MSC,CA,AUTO,Nunavut
CNPV,CAPE PROVIDENCE,Cape Providence,76001,2501419,74.456602,-112.160413,5.801,MSC,CA,AUTO,Northwest Territories
CNSG,SVARTEVAEG,Svartevaeg,71872,2403833,81.161196,-91.816114,71.894,MSC,CA,AUTO,Nunavut
CNSQ,SANIKILUAQ,Sanikiluaq,71643,2303668,56.5374,-79.2605,34,MSC,CA,AUTO,Nunavut
CNTK,TOMAHAWK AGDM,Tomahawk Agdm,71566,3016505,53.439444,-114.718333,814,GovAB,CA,AUTO,Alberta
CNTL,TOMPKINS LANDING AGCM,Tompkins Landing Agcm,,3076530,58.020578,-116.847797,343,GovAB,CA,AUTO,Alberta
CNVQ,NORMAN WELLS CLIMATE,Norman Wells Climate,71480,2202810,65.2875,-126.7534,95.1,MSC,CA,AUTO,Northwest Territories
CNZS,CORAL HARBOUR RCS,Coral Harbour Rcs,71134,2301010,64.187831,-83.347054,55.09,MSC,CA,AUTO,Nunavut
COBQ,BELLEVILLE QUINTE,Belleville Quinte,73042,6150690,44.159363,-77.439842,95.7,MSC,CA,AUTO,Ontario
COCP,CHAPLEAU AIRPORT,Chapleau Airport,73135,6061366,47.819258,-83.356448,447.856,MSC,CA,AUTO,Ontario
COGE,GERALDTON AIRPORT,Geraldton Airport,73071,6042719,49.78091,-86.93237,349.97,MSC,CA,AUTO,Ontario
COGI,GUELPH TURFGRASS INSTITUTE,Guelph Turfgrass Institute,73073,6143092,43.541873,-80.222081,336.52,MSC,CA,AUTO,Ontario
COKN,KING CITY NORTH,King City North,73074,6154150,43.963525,-79.574133,362,MSC,CA,AUTO,Ontario
COSL,SIOUX LOOKOUT AIRPORT,Sioux Lookout Airport,73017,6037800,50.123122,-91.904722,387.5,MSC,CA,AUTO,Ontario
COSM,SAULT STE. MARIE AIRPORT,Sault Ste. Marie Airport,73070,6057593,46.478055,-84.516667,189,MSC,CA,AUTO,Ontario
COTL,BIG TROUT LAKE,Big Trout Lake,71208,6010740,53.8164,-89.8916,219.5,MSC,CA,AUTO,Ontario
COTR,TERRACE BAY AIRPORT,Terrace Bay Airport,73018,6048232,48.815316,-87.091756,287.792,MSC,CA,AUTO,Ontario
CPAA,ALLIANCE AGCM,Alliance Agcm,71006,3010162,52.31528,-111.778613,737,GovAB,CA,AUTO,Alberta
CPAC,ACADIA VALLEY,Acadia Valley,71048,3020035,51.066136,-110.316969,735,GovAB,CA,AUTO,Alberta
CPAF,ATHABASCA AGCM,Athabasca Agcm,71271,3060330,54.634723,-113.381947,635,GovAB,CA,AUTO,Alberta
CPAH,ALBERT HALL AGCM,Albert Hall Agcm,71005,3010060,53.113334,-111.181113,658,GovAB,CA,AUTO,Alberta
CPAT,ATLEE AGCM,Atlee Agcm,71986,3020405,50.810019,-111.005564,795,GovAB,CA,AUTO,Alberta
CPAV,ARDENVILLE,Ardenville,,3030200,49.527511,-113.433914,1126,GovAB,CA,AUTO,Alberta
CPAZ,AZURE,Azure,71981,3030450,50.511944,-114.013061,1143,GovAB,CA,AUTO,Alberta
CPBA,BARONS AGCM,Barons Agcm,71007,3030529,50.025836,-113.224447,967,GovAB,CA,AUTO,Alberta
CPBB,BUSBY AGCM,Busby Agcm,71284,3010979,53.930835,-113.921667,714,GovAB,CA,AUTO,Alberta
CPBC,BALLATER AGCM,Ballater Agcm,,3070495,55.576944,-117.235556,560,GovAB,CA,AUTO,Alberta
CPBD,BLACK DIAMOND,Black Diamond,71982,3030680,50.706669,-114.151667,1156,GovAB,CA,AUTO,Alberta
CPBE,BEISEKER AGCM,Beiseker Agcm,71009,3020610,51.378613,-113.357223,896,GovAB,CA,AUTO,Alberta
CPBH,BULLHORN HEADWATERS,Bullhorn Headwaters,71016,3050965,49.1525,-113.550556,1326,GovAB,CA,AUTO,Alberta
CPBL,BELLSHILL AGCM,Bellshill Agcm,71010,3010650,52.582224,-111.46528,721,GovAB,CA,AUTO,Alberta
CPBM,BEAVER MINES,Beaver Mines,71304,3050602,49.4679,-114.175,1258.1,MSC,CA,AUTO,Alberta
CPBN,BROWNVALE AGCM,Brownvale Agcm,71283,3070800,56.117778,-117.886391,748,GovAB,CA,AUTO,Alberta
CPBO,BRANDON RCS,Brandon Rcs,71136,5010490,49.903444,-99.945586,408,MSC,CA,AUTO,Manitoba
CPBR,BULLHORN COULEE RESERVOIR,Bullhorn Coulee Reservoir,71839,3050960,49.295278,-113.358611,1115,GovAB,CA,AUTO,Alberta
CPBS,BASSANO AGCM,Bassano Agcm,71008,3030540,50.892501,-112.465003,807,GovAB,CA,AUTO,Alberta
CPBT,BLOOD TRIBE AGDM,Blood Tribe Agdm,71517,3030720,49.566667,-113.05,980,GovAB,CA,AUTO,Alberta
CPBU,BULL SPRINGS AGCM,Bull Springs Agcm,,3030879,50.33947,-110.4841,780,GovAB,CA,AUTO,Alberta
CPBV,BIG VALLEY AGCM,Big Valley Agcm,71011,3020679,51.997779,-112.802502,870,GovAB,CA,AUTO,Alberta
CPCA,CADOGAN AGCM,Cadogan Agcm,71012,3010992,52.334169,-110.510001,690,GovAB,CA,AUTO,Alberta
CPCC,CRESTOMERE AGCM,Crestomere Agcm,71380,3011892,52.732779,-113.90278,855,GovAB,CA,AUTO,Alberta
CPCE,CEREAL AGCM,Cereal Agcm,,3021463,51.2758,-110.8244,753,GovAB,CA,AUTO,Alberta
CPCF,CARROT CREEK AGCM,Carrot Creek Agcm,,3061350,53.623064,-115.893631,861,GovAB,CA,AUTO,Alberta
CPCH,FORT CHIPEWYAN RCS,Fort Chipewyan Rcs,71056,3072659,58.766305,-111.116619,239,MSC,CA,AUTO,Alberta
CPCI,CALGARY INT'L CS,Calgary Int'L Cs,71393,3031094,51.109309,-114.000258,1082.87,MSC,CA,AUTO,Alberta
CPCK,PINCHER CREEK CLIMATE,Pincher Creek Climate,71736,3035208,49.5222,-114.005,1191,MSC,CA,AUTO,Alberta
CPCL,CABIN LAKE AGCM,Cabin Lake Agcm,,3021000,51.023613,-111.221391,734,GovAB,CA,AUTO,Alberta
CPCM,CRAIGMYLE AGCM,Craigmyle Agcm,71013,3021912,51.775,-112.252223,845,GovAB,CA,AUTO,Alberta
CPCN,CAPPON,Cappon,,3021200,51.066947,-110.796689,758,GovAB,CA,AUTO,Alberta
CPCR,GLENWOOD,Glenwood,71885,3032818,49.334444,-113.524444,1074,GovAB,CA,AUTO,Alberta
CPCS,CLEAR HILLS AGCM,Clear Hills Agcm,,3071661,56.528905,-117.933352,672,GovAB,CA,AUTO,Alberta
CPCY,CARWAY,Carway,71488,3031402,48.9996,-113.3791,1355.1,MSC,CA,AUTO,Alberta
CPDA,DELBURNE AGCM,Delburne Agcm,71014,3012050,52.182779,-113.175557,889,GovAB,CA,AUTO,Alberta
CPDB,DEWBERRY AGCM,Dewberry Agcm,71359,3012073,53.659169,-110.587502,616,GovAB,CA,AUTO,Alberta
CPDO,DEADWOOD AGCM AB,Deadwood Agcm Ab,,3071957,56.715289,-117.54335,551,GovAB,CA,AUTO,Alberta
CPDU,DUPRE AGCM,Dupre Agcm,71414,3081690,54.366946,-110.867779,556,GovAB,CA,AUTO,Alberta
CPEA,EDGERTON AGCM,Edgerton Agcm,71360,3012192,52.777778,-110.432778,649,GovAB,CA,AUTO,Alberta
CPEL,EAGLESHAM AGCM,Eaglesham Agcm,71461,3072151,55.808056,-117.886667,563,GovAB,CA,AUTO,Alberta
CPFA,FERINTOSH AGCM,Ferintosh Agcm,71673,3012590,52.743614,-112.85778,795,GovAB,CA,AUTO,Alberta
CPFB,FORT ASSINIBOINE AGCM,Fort Assiniboine Agcm,71483,3062660,54.410279,-114.769168,676,GovAB,CA,AUTO,Alberta
CPFE,FLEET AGCM,Fleet Agcm,,3012635,52.040836,-111.813058,823,GovAB,CA,AUTO,Alberta
CPFF,FINNEGAN AGCM,Finnegan Agcm,,3022650,51.05319,-112.09737,748,GovAB,CA,AUTO,Alberta
CPFI,FINCASTLE AGDM,Fincastle Agdm,71535,3032550,49.8,-112.033333,833,GovAB,CA,AUTO,Alberta
CPFM,FORT MACLEOD AGCM,Fort Macleod Agcm,71789,3032683,49.785833,-113.379447,978,GovAB,CA,AUTO,Alberta
CPFO,FORESTBURG AGCM,Forestburg Agcm,71674,3012653,52.548335,-112.123334,721,GovAB,CA,AUTO,Alberta
CPFR,ST. FRANCIS,St. Francis,,3012799,53.294731,-114.320011,809,GovAB,CA,AUTO,Alberta
CPGB,GOOSEBERRY LAKE AGCM,Gooseberry Lake Agcm,,3012871,52.113056,-110.8025,740,GovAB,CA,AUTO,Alberta
CPGC,GLENEVIS AGCM,Glenevis Agcm,71500,3012818,53.832502,-114.53889,670,GovAB,CA,AUTO,Alberta
CPGE,GILT EDGE NORTH AGCM,Gilt Edge North Agcm,71791,3012790,53.070835,-110.620836,647,GovAB,CA,AUTO,Alberta
CPGF,GREAT FALLS CLIMATE,Great Falls Climate,71570,5031201,50.459013,-96.010316,247.452,MSC,CA,AUTO,Manitoba
CPGH,GIMLI CLIMATE,Gimli Climate,71748,5031042,50.6333,-97.05,231.6,MSC,CA,AUTO,Manitoba
CPGI,GLEICHEN AGCM,Gleichen Agcm,71498,3032801,50.934446,-112.940558,907,GovAB,CA,AUTO,Alberta
CPGL,GRASSY LAKE,Grassy Lake,71788,3032927,49.873611,-111.732778,783,GovAB,CA,AUTO,Alberta
CPGT,GLADSTONE AGCM,Gladstone Agcm,,3012810,52.987248,-112.278082,704,GovAB,CA,AUTO,Alberta
CPHA,HALKIRK AGCM,Halkirk Agcm,71792,3012999,52.116391,-112.164167,843,GovAB,CA,AUTO,Alberta
CPHE,HEMARUKA AGCM,Hemaruka Agcm,71793,3013140,51.779724,-111.211946,780,GovAB,CA,AUTO,Alberta
CPHJ,HIGH LEVEL,High Level,73085,3073148,58.6314,-117.163738,338.583,MSC,CA,AUTO,Alberta
CPHR,HESPERO AGCM,Hespero Agcm,71540,3023200,52.310002,-114.485834,965,GovAB,CA,AUTO,Alberta
CPHU,HUGHENDEN AGCM,Hughenden Agcm,71794,3013362,52.578058,-110.783612,703,GovAB,CA,AUTO,Alberta
CPHW,HAWK HILLS AGCM,Hawk Hills Agcm,71507,3073071,57.264723,-117.297503,455,GovAB,CA,AUTO,Alberta
CPIA,IRVINE AGCM,Irvine Agcm,71795,3033550,49.989169,-110.261391,795,GovAB,CA,AUTO,Alberta
CPIF,ISLAND FALLS (AUT),Island Falls (Aut),71331,4063605,55.528161,-102.345178,299.453,MSC,CA,AUTO,Saskatchewan
CPII,ISLAND LAKE SOUTH,Island Lake South,71654,3063600,54.816833,-113.56,619.7,MSC,CA,AUTO,Alberta
CPIL,LOON LAKE RCS,Loon Lake Rcs,71273,4064620,54.0197,-109.1383,547.1,MSC,CA,AUTO,Saskatchewan
CPIN,BERNARD HARBOUR,Bernard Harbour,73231,2300556,68.75528,-114.9397,62,DND,DND-AWOS,AUTO,Nunavut
CPIR,IRON SPRINGS AGDM,Iron Springs Agdm,71528,3033498,49.9,-112.733333,858,GovAB,CA,AUTO,Alberta
CPJM,ESTEVAN RCS,Estevan Rcs,71559,4012410,49.205347,-102.967084,579.353,MSC,CA,AUTO,Saskatchewan
CPJP,CROSS LAKE JENPEG 2,Cross Lake Jenpeg 2,71106,5060622,54.539722,-98.030278,221,MSC,CA,AUTO,Manitoba
CPJT,JEAN COTE AGCM,Jean Cote Agcm,71541,3073535,55.912779,-117.119724,638,GovAB,CA,AUTO,Alberta
CPKA,KESSLER AGCM,Kessler Agcm,71796,3013644,52.290278,-111.113057,720,GovAB,CA,AUTO,Alberta
CPKG,KEG RIVER AGCM,Keg River Agcm,,3073644,57.7875,-117.676667,408,GovAB,CA,AUTO,Alberta
CPKI,KITSCOTY AGCM,Kitscoty Agcm,71797,3013660,53.353335,-110.416112,664,GovAB,CA,AUTO,Alberta
CPKK,KINIKINIK,Kinikinik,,3063640,54.563075,-112.981117,629,GovAB,CA,AUTO,Alberta
CPKO,KEOMA AGCM,Keoma Agcm,,3033620,51.19056,-113.63056,945,GovAB,CA,AUTO,Alberta
CPKR,KINSELLA RESEARC STATION,Kinsella Researc Station,,3013647,53.046944,-111.5475,701,GovAB,CA,AUTO,Alberta
CPKY,ROCKY LANE AGCM,Rocky Lane Agcm,,3075550,58.451683,-116.48056,301,GovAB,CA,AUTO,Alberta
CPLA,LINDEN AGCM,Linden Agcm,71035,3023850,51.618891,-113.655558,914,GovAB,CA,AUTO,Alberta
CPLC,LA CRETE AGCM,La Crete Agcm,71542,3073730,58.171947,-116.342778,323,GovAB,CA,AUTO,Alberta
CPLE,LYNN LAKE RCS,Lynn Lake Rcs,71632,5061649,56.8618,-101.0681,355.7,MSC,CA,AUTO,Manitoba
CPLF,LEGAL AGCM,Legal Agcm,71544,3013790,54.003056,-113.474445,680,GovAB,CA,AUTO,Alberta
CPLG,LA GLACE AGCM,La Glace Agcm,71543,3073740,55.421945,-119.254723,760,GovAB,CA,AUTO,Alberta
CPLS,KEY LAKE,Key Lake,71033,4063753,57.25,-105.6,515.5,MSC,CA,AUTO,Saskatchewan
CPLY,ISPAS,Ispas,,3065712,53.851389,-111.835283,655,GovAB,CA,AUTO,Alberta
CPLZ,LODGE CREEK,Lodge Creek,,3023900,49.45771,-110.3412,1068,GovAB,CA,AUTO,Alberta
CPMA,MANNVILLE AGCM,Mannville Agcm,71047,3014195,53.455557,-111.25528,656,GovAB,CA,AUTO,Alberta
CPMB,MANYBERRIES AGCM,Manyberries Agcm,71051,3044203,49.363889,-110.678057,927,GovAB,CA,AUTO,Alberta
CPMK,MANKOTA,Mankota,71204,4034910,49.1,-107.0167,831.5,MSC,CA,AUTO,Saskatchewan
CPML,MOSSLEIGH AGCM,Mossleigh Agcm,71057,3034577,50.672501,-113.348613,965,GovAB,CA,AUTO,Alberta
CPMN,MYRNAM AGCM,Myrnam Agcm,71065,3014690,53.720002,-111.114446,580,GovAB,CA,AUTO,Alberta
CPMR,ST. MARY RESERVOIR,St. Mary Reservoir,71837,3056100,49.361389,-113.11,1128,GovAB,CA,AUTO,Alberta
CPNB,EVANSBURG2 AGCM,Evansburg2 Agcm,71481,3062476,53.613889,-115.062247,785,GovAB,CA,AUTO,Alberta
CPNS,NEW SAREPTA AGCM,New Sarepta Agcm,71067,3014795,53.262225,-113.165002,765,GovAB,CA,AUTO,Alberta
CPNU,SUNNYNOOK AGCM,Sunnynook Agcm,,3026264,51.300836,-111.388064,775,GovAB,CA,AUTO,Alberta
CPNX,RANFURLY AUTO,Ranfurly Auto,71637,3015401,53.4249,-111.7257,688,MSC,CA,AUTO,Alberta
CPOX,SASKATOON RCS,Saskatoon Rcs,71496,4057165,52.173753,-106.718888,505.123,MSC,CA,AUTO,Saskatchewan
CPOY,CYPRESS RIVER RCS,Cypress River Rcs,71239,5010641,49.562407,-99.073804,375.603,MSC,CA,AUTO,Manitoba
CPPL,PAKOWKI LAKE AGCM,Pakowki Lake Agcm,71070,3045000,49.224724,-111.126113,915,GovAB,CA,AUTO,Alberta
CPPN,SOCIAL PLAINS AGCM,Social Plains Agcm,,3036040,50.732,-110.2147,741,GovAB,CA,AUTO,Alberta
CPPR,PRINCE ALBERT GLASS FIELD,Prince Albert Glass Field,73002,4056243,53.210207,-105.676677,426.629,MSC,CA,AUTO,Saskatchewan
CPPT,PATRICIA AGCM,Patricia Agcm,,3025013,50.74002,-111.621,726,GovAB,CA,AUTO,Alberta
CPPV,PLEASANT VIEW,Pleasant View,,3065200,54.963894,-113.320578,649,GovAB,CA,AUTO,Alberta
CPQD,THE PAS CLIMATE,The Pas Climate,71695,5052890,53.974776,-101.088925,273.69,MSC,CA,AUTO,Manitoba
CPQL,LETHBRIDGE DEMO FARM AGDM,Lethbridge Demo Farm Agdm,71509,3033897,49.683333,-112.75,903,GovAB,CA,AUTO,Alberta
CPQU,QUEENSTOWN,Queenstown,71073,3035342,50.597781,-112.803347,941,GovAB,CA,AUTO,Alberta
CPQW,NORTH BATTLEFORD RCS,North Battleford Rcs,71754,4045607,52.76931,-108.250355,544.687,MSC,CA,AUTO,Saskatchewan
CPRA,RIVERCOURSE AGCM,Rivercourse Agcm,71102,3015501,53.01889,-110.101945,669,GovAB,CA,AUTO,Alberta
CPRD,PRIDDIS OBSERVATORY,Priddis Observatory,,3033505,50.869167,-114.291667,1267,GovAB,CA,AUTO,Alberta
CPRE,RAINIER AGCM,Rainier Agcm,,3035355,50.366667,-112.116667,765,GovAB,CA,AUTO,Alberta
CPRF,RYCROFT AGCM,Rycroft Agcm,71546,3075601,55.776668,-118.668056,575,GovAB,CA,AUTO,Alberta
CPRH,ROLLING HILLS AGCM,Rolling Hills Agcm,71105,3035530,50.265002,-111.701111,645,GovAB,CA,AUTO,Alberta
CPRJ,YORKTON RCS,Yorkton Rcs,71886,4019073,51.260108,-102.461547,498.4,MSC,CA,AUTO,Saskatchewan
CPRL,ROSALIND AGCM,Rosalind Agcm,71202,3015600,52.792269,-112.422369,712,GovAB,CA,AUTO,Alberta
CPRO,ROSEMARY AGDM,Rosemary Agdm,71537,3035650,50.833333,-112.05,714,GovAB,CA,AUTO,Alberta
CPRR,MILK RIVER RIDGE RESERVOIR,Milk River Ridge Reservoir,71015,3044545,49.283889,-112.538333,1305,GovAB,CA,AUTO,Alberta
CPRS,RIBSTONE SOUTH AGCM,Ribstone South Agcm,71089,3015480,52.586945,-110.342779,644,GovAB,CA,AUTO,Alberta
CPRV,ROMA,Roma,73104,3075043,56.193322,-117.451958,560.18,MSC,CA,AUTO,Alberta
CPRY,RAYMOND AGDM,Raymond Agdm,71536,3035422,49.483333,-112.683333,937,GovAB,CA,AUTO,Alberta
CPSA,SEDALIA AGCM,Sedalia Agcm,71399,3015797,51.59028,-110.754723,755,GovAB,CA,AUTO,Alberta
CPSD,STANDARD AGCM,Standard Agcm,71440,3036086,51.228335,-112.981946,901,GovAB,CA,AUTO,Alberta
CPSH,SHONTS AGCM,Shonts Agcm,71405,3015900,53.3325,-112.539446,679,GovAB,CA,AUTO,Alberta
CPSL,ST. LINA AGCM,St. Lina Agcm,71548,3015673,54.282223,-111.453057,619,GovAB,CA,AUTO,Alberta
CPSP,SPONDIN AGCM,Spondin Agcm,71413,3016070,51.815836,-111.682501,804,GovAB,CA,AUTO,Alberta
CPSQ,SWEETGRASS LANDING,Sweetgrass Landing,,3076330,58.852889,-111.997,212,MSC,CA,AUTO,Alberta
CPSR,ST. ALBERT RESEARCH STATION,St. Albert Research Station,,3025750,53.691944,-113.619722,687,GovAB,CA,AUTO,Alberta
CPST,STRATHMORE AGDM,Strathmore Agdm,71526,3036205,51.033333,-113.283333,967,GovAB,CA,AUTO,Alberta
CPSU,SIOUX FALLS CLIMATE,Sioux Falls Climate,71168,9052008,43.73353,-96.623436,483.02,MSC,CA,AUTO,
CPSV,SEVEN PERSONS AGDM,Seven Persons Agdm,71525,3035845,49.916667,-110.916667,766,GovAB,CA,AUTO,Alberta
CPSW,SAVANNA AGCM,Savanna Agcm,71547,3075770,56.076112,-119.344724,703,GovAB,CA,AUTO,Alberta
CPSY,KINDERSLEY AIRPORT,Kindersley Airport,73097,4043902,51.51612,-109.177866,692.551,MSC,CA,AUTO,Saskatchewan
CPTA,TAWATINAW AGCM,Tawatinaw Agcm,71549,3066367,54.299725,-113.520278,611,GovAB,CA,AUTO,Alberta
CPTC,TEEPEE CREEK AGCM,Teepee Creek Agcm,71690,3076366,55.352224,-118.407501,670,GovAB,CA,AUTO,Alberta
CPTE,TIDE LAKE AGCM,Tide Lake Agcm,,3036485,50.45557,-111.3214,766,GovAB,CA,AUTO,Alberta
CPTG,KLEEFELD (MAFRI),Kleefeld (Mafri),71646,5021500,49.529669,-96.915459,246.183,MSC,CA,AUTO,Manitoba
CPTH,THORSBY AGCM,Thorsby Agcm,71504,3016441,53.217224,-113.894724,754,GovAB,CA,AUTO,Alberta
CPTO,THOMPSON AIRPORT,Thompson Airport,73072,5062918,55.79882,-97.87659,226.5,MSC,CA,AUTO,Manitoba
CPTU,TULLIBY LAKE AGCM,Tulliby Lake Agcm,71857,3016593,53.664169,-110.080835,596,GovAB,CA,AUTO,Alberta
CPUN,PILGER,Pilger,71655,4056121,52.41898,-105.153086,558.981,MSC,CA,AUTO,Saskatchewan
CPVA,VIKING AGCM,Viking Agcm,71888,3016841,53.182222,-111.731667,711,GovAB,CA,AUTO,Alberta
CPVI,VILNA AGCM,Vilna Agcm,71761,3016852,54.13,-111.92139,645,GovAB,CA,AUTO,Alberta
CPVR,VERGER,Verger,,3026800,50.895021,-111.955006,723,GovAB,CA,AUTO,Alberta
CPWB,WIMBORNE AGCM,Wimborne Agcm,71904,3027582,51.935836,-113.590834,940,GovAB,CA,AUTO,Alberta
CPWT,WETASKIWIN AGCM,Wetaskiwin Agcm,71895,3017282,52.98028,-113.444168,774,GovAB,CA,AUTO,Alberta
CPWX,WASECA RCS,Waseca Rcs,71663,4048521,53.131451,-109.405481,645.27,MSC,CA,AUTO,Saskatchewan
CPX1,PIBROCH AGCM,Pibroch Agcm,,301X001,54.30808,-113.820558,621,GovAB,CA,AUTO,Alberta
CPXB,BUFFALO AGCM,Buffalo Agcm,,3020950,50.7981,-110.68558,723,GovAB,CA,AUTO,Alberta
CPXC,BLACKIE AGCM,Blackie Agcm,,3030690,50.545579,-113.640278,1019,GovAB,CA,AUTO,Alberta
CPXH,HAND HILLS AGCM,Hand Hills Agcm,,3022990,51.4525,-112.1352,941,GovAB,CA,AUTO,Alberta
CPXS,SHEERNESS AGCM,Sheerness Agcm,,3025890,51.46278,-111.6464,852,GovAB,CA,AUTO,Alberta
CPXX,RALSTON AGCM,Ralston Agcm,,3035362,50.0991,-111.21308,770,GovAB,CA,AUTO,Alberta
CPXZ,LETHBRIDGE AGTECH AGCM,Lethbridge Agtech Agcm,,3033877,49.647222,-112.7625,918,GovAB,CA,AUTO,Alberta
CPYQ,CHURCHILL CLIMATE,Churchill Climate,71696,5060608,58.739375,-94.075125,30,MSC,CA,AUTO,Manitoba
CPYS,YELLOW GRASS NORTH,Yellow Grass North,73001,4019041,49.820245,-104.181048,578.506,MSC,CA,AUTO,Saskatchewan
CPYT,YOUNGSTOWN AGCM,Youngstown Agcm,,3017705,51.490557,-111.223613,800,GovAB,CA,AUTO,Alberta
CPZC,CAMPSIE AUTO,Campsie Auto,71636,3061201,54.1306,-114.6776,648,MSC,CA,AUTO,Alberta
CPZH,SLAVE LAKE RCS,Slave Lake Rcs,71693,3065997,55.296486,-114.78445,584,MSC,CA,AUTO,Alberta
CPZK,KIRRIEMUIR AGCM,Kirriemuir Agcm,,3023660,51.913078,-110.358915,711,GovAB,CA,AUTO,Alberta
CPZL,LATHOM AGCM,Lathom Agcm,,3033770,50.60029,-112.298903,810,GovAB,CA,AUTO,Alberta
CPZN,PINHORN AGCM,Pinhorn Agcm,,3045100,49.028895,-111.025017,1061,GovAB,CA,AUTO,Alberta
CPZW,WARNER AGCM,Warner Agcm,,3046951,49.282792,-112.160296,1004,GovAB,CA,AUTO,Alberta
CTAG,FORT FRANCES RCS,Fort Frances Rcs,71962,6022474,48.65118,-93.43896,345.2,MSC,CA,AUTO,Ontario
CTBF,BRANTFORD AIRPORT,Brantford Airport,71602,6140942,43.13733,-80.331275,246.941,MSC,CA,AUTO,Ontario
CTBO,BROCKVILLE CLIMATE,Brockville Climate,71161,6100970,44.635233,-75.751617,122.425,MSC,CA,AUTO,Ontario
CTBT,BEATRICE CLIMATE,Beatrice Climate,71694,6110607,45.135713,-79.398931,285.168,MSC,CA,AUTO,Ontario
CTCK,MOOSE CREEK WELLS,Moose Creek Wells,71635,6105397,45.251208,-74.962869,85.725,MSC,CA,AUTO,Ontario
CTGT,GUELPH TURFGRASS,Guelph Turfgrass,71833,6143089,43.547258,-80.215061,326.6,MSC,CA,AUTO,Ontario
CTKG,KINGSTON CLIMATE,Kingston Climate,71820,6104142,44.218,-76.595,113.3,MSC,CA,AUTO,Ontario
CTKR,KENORA RCS,Kenora Rcs,71151,6034073,49.790497,-94.361239,412.544,MSC,CA,AUTO,Ontario
CTLS,LAKE SUPERIOR PROVINCIAL PARK,Lake Superior Provincial Park,71640,6054425,47.723175,-84.813978,400.274,MSC,CA,AUTO,Ontario
CTMS,TIMMINS CLIMATE,Timmins Climate,71193,6078282,48.568,-81.378,296,MSC,CA,AUTO,Ontario
CTNK,ALGONQUIN PARK EAST GATE,Algonquin Park East Gate,71581,6080192,45.535689,-78.261698,400.078,MSC,CA,AUTO,Ontario
CTPM,PEMBROKE,Pembroke,71196,6106367,45.86007,-77.252387,161.521,MSC,CA,AUTO,Ontario
CTPQ,PETERBOROUGH TRENT U,Peterborough Trent U,71672,6166456,44.351,-78.295,217.2,MSC,CA,AUTO,Ontario
CTRA,RAWSON LAKE (AUT),Rawson Lake (Aut),71855,6036907,49.6642,-93.7328,433.5,MSC,CA,AUTO,Ontario
CTRY,MONO CENTRE,Mono Centre,71098,6157000,44.032498,-80.024285,437.4,MSC,CA,AUTO,Ontario
CTSB,SUDBURY CLIMATE,Sudbury Climate,71733,6068145,46.6324,-80.796,350,MSC,CA,AUTO,Ontario
CTTR,TOBERMORY RCS,Tobermory Rcs,71767,6128330,45.22414,-81.635069,211.264,MSC,CA,AUTO,Ontario
CTUX,UXBRIDGE WEST,Uxbridge West,71932,6159123,44.098248,-79.163552,321.87,MSC,CA,AUTO,Ontario
CTWL,WELLAND-PELHAM,Welland-Pelham,71752,6139449,42.973197,-79.325323,180,MSC,CA,AUTO,Ontario
CTXR,EARLTON CLIMATE,Earlton Climate,71213,6072230,47.697482,-79.853365,245.4,MSC,CA,AUTO,Ontario
CTZE,GORE BAY CLIMATE,Gore Bay Climate,71956,6092920,45.889797,-82.572159,195.84,MSC,CA,AUTO,Ontario
CTZN,NORTH BAY AIRPORT,North Bay Airport,73016,6085695,46.372723,-79.423555,365.5,MSC,CA,AUTO,Ontario
CTZR,SARNIA CLIMATE,Sarnia Climate,71746,6127519,42.994835,-82.307414,181.612,MSC,CA,AUTO,Ontario
CVAS,ASHCROFT,Ashcroft,71681,1160515,50.7083,-121.2814,328.5,MSC,CA,AUTO,British Columbia
CVBB,DELTA BURNS BOG,Delta Burns Bog,71042,1102415,49.125992,-123.002436,4.6,MSC,CA,AUTO,British Columbia
CVBD,BELLA COOLA AIRPORT,Bella Coola Airport,71533,1060844,52.388507,-126.586783,37.9,MSC,CA,AUTO,British Columbia
CVBR,BURWASH AIRPORT AUTO,Burwash Airport Auto,71195,2100184,61.370132,-139.032477,802.5,MSC,CA,AUTO,Yukon
CVCL,CULTUS LAKE,Cultus Lake,,1102221,49.078938,-121.978702,45.7,MSC,CA,AUTO,British Columbia
CVCW,CLEARWATER AUTO,Clearwater Auto,71645,1161650,51.652609,-120.082309,455.978,MSC,CA,AUTO,British Columbia
CVFN,FORT NELSON,Fort Nelson,71594,1192948,58.841389,-122.574167,380.4,MSC,CA,AUTO,British Columbia
CVFS,FORT ST JAMES AUTO,Fort St James Auto,71933,1092975,54.4553,-124.2856,678,MSC,CA,AUTO,British Columbia
CVGE,GOLDEN AIRPORT,Golden Airport,71905,1173220,51.300275,-116.984435,787.935,MSC,CA,AUTO,British Columbia
CVKC,KITIMAT FOREST AVE,Kitimat Forest Ave,73007,1064324,54.056434,-128.604077,106.454,MSC,CA,AUTO,British Columbia
CVKU,KELOWNA UBCO,Kelowna Ubco,71644,1123996,49.9406,-119.4,458,MSC,CA,AUTO,British Columbia
CVLY,LYTTON RCS,Lytton Rcs,71765,1114746,50.2244,-121.5819,226.8,MSC,CA,AUTO,British Columbia
CVME,MERRITT,Merritt,71557,1125073,50.1125,-120.7781,592.5,MSC,CA,AUTO,British Columbia
CVOC,WHISTLER - NESTERS,Whistler - Nesters,71687,1100875,50.1289,-122.9546,661.8,MSC,CA,AUTO,British Columbia
CVOD,CALLAGHAN VALLEY,Callaghan Valley,71688,1101300,50.14405,-123.110608,887.2,MSC,CA,AUTO,British Columbia
CVOM,PORT MELLON,Port Mellon,71605,1046332,49.5263,-123.496211,131.5,MSC,CA,AUTO,British Columbia
CVOO,NORTH COWICHAN,North Cowichan,71927,1015630,48.824209,-123.718917,46.8,MSC,CA,AUTO,British Columbia
CVOP,POWELL RIVER,Powell River,71720,1046392,49.8346,-124.4968,127,MSC,CA,AUTO,British Columbia
CVOQ,QUALICUM BEACH AIRPORT,Qualicum Beach Airport,71766,1026562,49.337222,-124.393889,60.2,MSC,CA,AUTO,British Columbia
CVOU,SECHELT AUT,Sechelt Aut,71638,1047172,49.458,-123.7153,89.2,MSC,CA,AUTO,British Columbia
CVPE,HOPE AIRPORT,Hope Airport,71114,1113543,49.3698,-121.4935,41,MSC,CA,AUTO,British Columbia
CVPX,PRINCE GEORGE MASSEY AUTO,Prince George Massey Auto,,1096454,53.90001,-122.790803,602.163,MSC,CA,AUTO,British Columbia
CVQZ,QUESNEL AIRPORT AUTO,Quesnel Airport Auto,71779,1096631,53.0267,-122.5064,546.2,MSC,CA,AUTO,British Columbia
CVRA,REVELSTOKE AIRPORT AUTO,Revelstoke Airport Auto,71882,1176755,50.958222,-118.176277,446.2,MSC,CA,AUTO,British Columbia
CVSA,SAANICHTON CFIA,Saanichton Cfia,73028,1016943,48.621733,-123.410233,25.5,MSC,CA,AUTO,British Columbia
CVSJ,FORT ST JOHN AIRPORT,Fort St John Airport,73090,1183002,56.247478,-120.750133,692.792,MSC,CA,AUTO,British Columbia
CVSL,OOTSA LAKE SKINS LAKE,Ootsa Lake Skins Lake,71679,1085836,53.771997,-125.996842,861.9,MSC,CA,AUTO,British Columbia
CVTF,TSAWWASSEN FERRY AUTO,Tsawwassen Ferry Auto,,1108291,49.0039,-123.1333,8.3,MSC,CA,AUTO,British Columbia
CVTS,SATURNA CAPMON,Saturna Capmon,71914,1017099,48.775203,-123.128286,179.5,MSC,CA,AUTO,British Columbia
CVVR,VANCOUVER SEA ISLAND CCG,Vancouver Sea Island Ccg,71608,1108380,49.182552,-123.187254,4.118,MSC,CA,AUTO,British Columbia
CVXC,CRANBROOK AIRPORT AUTO,Cranbrook Airport Auto,71660,1152106,49.61766,-115.789025,930.837,MSC,CA,AUTO,British Columbia
CVXS,PRINCE GEORGE AIRPORT AUTO,Prince George Airport Auto,71302,1096453,53.888996,-122.67208,681.6,MSC,CA,AUTO,British Columbia
CVXY,WHITEHORSE AUTO,Whitehorse Auto,71773,2101310,60.733208,-135.097817,714,MSC,CA,AUTO,Yukon
CVYD,SMITHERS AIRPORT AUTO,Smithers Airport Auto,71268,1077501,54.824275,-127.189264,519.997,MSC,CA,AUTO,British Columbia
CVZP,SANDSPIT AIRPORT AUTO,Sandspit Airport Auto,71101,1057051,53.249444,-131.813138,10.9,MSC,CA,AUTO,British Columbia
CVZY,MACKENZIE AIRPORT AUTO,Mackenzie Airport Auto,71944,1184793,55.30525,-123.137972,695,MSC,CA,AUTO,British Columbia
CWAE,Whistler,Whistler,,1048899,50.16667,-122.9,657.8,NAV CANADA,NC-HWOS,MAN,British Columbia
CWAF,ILE ROUGE,Ile Rouge,71426,7043BP9,48.068802,-69.555347,4.9,MSC,CA,AUTO,Quebec
CWAG,LA SCIE,La Scie,71337,8402520,49.9128,-55.6713,196,MSC,CA,AUTO,Newfoundland and Labrador
CWAJ,ERIEAU (AUT),Erieau (Aut),71465,613KLLM,42.2569,-81.9087,175.5,MSC,CA,AUTO,Ontario
CWAQ,CORONACH SPC,Coronach Spc,71516,40318MN,49.05,-105.4833,757.5,MSC,CA,AUTO,Saskatchewan
CWAS,HOWE SOUND - PAM ROCKS,Howe Sound - Pam Rocks,71211,10459NN,49.4879,-123.2995,8.643,MSC,CA,AUTO,British Columbia
CWAV,SUNDRE A,Sundre A,71248,3026KNQ,51.7781,-114.6825,1115.6,MSC,CA,AUTO,Alberta
CWAY,MOULD BAY CS,Mould Bay Cs,71989,250M001,76.23767,-119.347881,2.516,MSC,CA,AUTO,Northwest Territories
CWBA,BARRAGE TEMISCAMINGUE,Barrage Temiscamingue,71732,7080468,46.709657,-79.100838,182.4,MSC,CA,AUTO,Quebec
CWBD,INDIAN HEAD CDA,Indian Head Cda,71515,4013480,50.55,-103.65,580.6,MSC,CA,AUTO,Saskatchewan
CWBE,KILLARNEY (AUT),Killarney (Aut),71460,605DJ25,45.968166,-81.488831,189,MSC,CA,AUTO,Ontario
CWBJ,INNER WHALEBACKS,Inner Whalebacks,71162,2202560,61.920731,-113.726069,166.5,MSC,CA,AUTO,Northwest Territories
CWBK,CARIBOU POINT (AUT),Caribou Point (Aut),71415,8200774,45.7643,-62.680539,7,MSC,CA,AUTO,Nova Scotia
CWBM,BEAVERLODGE RCS,Beaverlodge Rcs,71230,3070600,55.1967,-119.3964,746.6,MSC,CA,AUTO,Alberta
CWBO,BROOKS,Brooks,71457,3030QLP,50.555337,-111.849428,748.1,MSC,CA,AUTO,Alberta
CWBS,LAC SAINT-PIERRE,Lac Saint-Pierre,71198,701LP0N,46.1833,-72.9167,16.2,MSC,CA,AUTO,Quebec
CWBT,LONGUE-POINTE-DE-MINGAN,Longue-Pointe-De-Mingan,71512,7044328,50.271508,-64.226628,11.215,MSC,CA,AUTO,Quebec
CWBU,NIPAWIN,Nipawin,71312,407N51G,53.3323,-104.0031,369.5,MSC,CA,AUTO,Saskatchewan
CWBV,BEAVER ISLAND (AUT),Beaver Island (Aut),71403,8200558,44.8248,-62.3379,7.5,MSC,CA,AUTO,Nova Scotia
CWBY,PORT-MENIER,Port-Menier,71810,7056202,49.838383,-64.29356,54.845,MSC,CA,AUTO,Quebec
CWBZ,ST-ANICET 1,St-Anicet 1,71712,702FQLF,45.120816,-74.289519,49.69,MSC,CA,AUTO,Quebec
CWCF,BERENS RIVER CS,Berens River Cs,71158,5030203,52.3597,-97.022,223.4,MSC,CA,AUTO,Manitoba
CWCH,ATIKOKAN (AUT),Atikokan (Aut),71747,6020LPQ,48.760936,-91.628253,389.27,MSC,CA,AUTO,Ontario
CWCI,CARIBOU ISLAND (AUT),Caribou Island (Aut),71433,6041222,47.33943,-85.826017,188.9,MSC,CA,AUTO,Ontario
CWCJ,PUKASKWA (AUT),Pukaskwa (Aut),71750,6046768,48.607722,-86.287361,191.559,MSC,CA,AUTO,Ontario
CWCO,COLLINGWOOD,Collingwood,71270,6111792,44.504863,-80.222797,180.209,MSC,CA,AUTO,Ontario
CWCT,CORONATION CLIMATE,Coronation Climate,71318,3011887,52.07427,-111.449205,790.98,MSC,CA,AUTO,Alberta
CWDA,ENGLEE (AUT),Englee (Aut),71417,8401538,50.7211,-56.1128,41,MSC,CA,AUTO,Newfoundland and Labrador
CWDC,URANIUM CITY (AUT),Uranium City (Aut),71076,406QLD0,59.560859,-108.47757,319.7,MSC,CA,AUTO,Saskatchewan
CWDE,LAC BENOIT,Lac Benoit,71520,706I001,51.5324,-71.1104,549,MSC,CA,AUTO,Quebec
CWDI,BADGER (AUT),Badger (Aut),71400,8400301,48.9667,-56.0667,110,MSC,CA,AUTO,Newfoundland and Labrador
CWDJ,REGINA RCS,Regina Rcs,71514,4016699,50.42691,-104.670143,577.422,MSC,CA,AUTO,Saskatchewan
CWDK,CLARESHOLM,Claresholm,71234,3031640,50.0036,-113.6406,1010.1,MSC,CA,AUTO,Alberta
CWDM,CHEVERY,Chevery,71814,7041382,50.464872,-59.639545,7.646,MSC,CA,AUTO,Quebec
CWDO,TWILLINGATE (AUT),Twillingate (Aut),71402,8404025,49.6833,-54.8,81,MSC,CA,AUTO,Newfoundland and Labrador
CWDP,MANOUANE EST,Manouane Est,71521,706I155,50.656472,-70.532028,497,MSC,CA,AUTO,Quebec
CWDQ,LA TUQUE,La Tuque,71378,707DBD4,47.410914,-72.787581,168.1,MSC,CA,AUTO,Quebec
CWDR,DISCOVERY ISLAND,Discovery Island,71031,1012475,48.4246,-123.225833,21.1,MSC,CA,AUTO,British Columbia
CWDT,CHUTE-DES-PASSES,Chute-Des-Passes,71522,7061541,49.840138,-71.168333,398.2,MSC,CA,AUTO,Quebec
CWDU,COP UPPER,Cop Upper,71235,3031875,51.0762,-114.2225,1236.2,MSC,CA,AUTO,Alberta
CWDV,UPSALA (AUT),Upsala (Aut),71435,6049095,49.036,-90.4613,485.5,MSC,CA,AUTO,Ontario
CWDW,ST ANTHONY,St Anthony,71558,8403399,51.38699,-56.089926,31.3,MSC,CA,AUTO,Newfoundland and Labrador
CWDZ,DRUMHELLER EAST,Drumheller East,71237,30221LG,51.4451,-112.6758,679.3,MSC,CA,AUTO,Alberta
CWEA,PINAWA,Pinawa,71448,503B1ER,50.1772,-96.0647,269.5,MSC,CA,AUTO,Manitoba
CWEB,ESTEVAN POINT CS,Estevan Point Cs,71894,1032731,49.3832,-126.5447,8,MSC,CA,AUTO,British Columbia
CWEC,WELCOME ISLAND (AUT),Welcome Island (Aut),71751,6049443,48.3692,-89.1194,212.353,MSC,CA,AUTO,Ontario
CWEE,CHAMOUCHOUANE,Chamouchouane,71523,7061288,49.278305,-73.355861,304.99,MSC,CA,AUTO,Quebec
CWEF,ST PAUL ISLAND (AUT),St Paul Island (Aut),71418,8204909,47.226333,-60.139972,26,MSC,CA,AUTO,Nova Scotia
CWEH,EASTEND CYPRESS (AUT),Eastend Cypress (Aut),71131,4032322,49.4378,-108.9886,1081.1,MSC,CA,AUTO,Saskatchewan
CWEI,MELITA,Melita,71447,501A7AR,49.281262,-100.986228,445.94,MSC,CA,AUTO,Manitoba
CWEL,ENTRANCE ISLAND,Entrance Island,71772,1022689,49.208714,-123.810565,9.1,MSC,CA,AUTO,British Columbia
CWEO,LAC EON,Lac Eon,71421,704C64L,51.86738,-63.283231,569.75,MSC,CA,AUTO,Quebec
CWEP,EAST POINT (AUT),East Point (Aut),71412,8300418,46.459642,-61.987838,10.5,MSC,CA,AUTO,Prince Edward Island
CWEQ,SWAN RIVER RCS,Swan River Rcs,71443,504K80K,52.115144,-101.232791,335.012,MSC,CA,AUTO,Manitoba
CWER,ILE D'ORLEANS,Ile D'Orleans,71424,70132G9,46.9967,-70.8083,3.6,MSC,CA,AUTO,Quebec
CWEU,Eureka,Eureka,71917,2401208,79.99445,-85.81194,82.9,NAV CANADA,NC-AWOS,AUTO,Nunavut
CWEU,Eureka,Eureka,71917,2401203,79.99445,-85.81194,82.9,NAV CANADA,NC-HWOS,MAN,Nunavut
CWEW,L'ASSOMPTION,L'Assomption,71524,7014160,45.8094,-73.4348,21,MSC,CA,AUTO,Quebec
CWEX,EMERSON AUTO,Emerson Auto,71560,5020881,49,-97.2375,243.5,MSC,CA,AUTO,Manitoba
CWEZ,SATURNA ISLAND,Saturna Island,71473,1017101,48.783215,-123.045807,25.4,MSC,CA,AUTO,British Columbia
CWFD,CAPE DYER,Cape Dyer,71094,2400650,66.66556,-61.35889,725,DND,DND-AWOS,AUTO,Nunavut
CWFE,ELK ISLAND NAT PARK,Elk Island Nat Park,71238,3012275,53.682619,-112.868105,714.85,MSC,CA,AUTO,Alberta
CWFF,MELFORT,Melfort,71456,4055079,52.816274,-104.596511,487.343,MSC,CA,AUTO,Saskatchewan
CWFG,SARTINE ISLAND (AUT),Sartine Island (Aut),71478,1037090,50.819384,-128.906201,103.45,MSC,CA,AUTO,British Columbia
CWFJ,CARDSTON,Cardston,71153,3031322,49.2008,-113.2859,1137.2,MSC,CA,AUTO,Alberta
CWFO,FLIN FLON,Flin Flon,71954,5050919,54.678111,-101.679138,305.4,MSC,CA,AUTO,Manitoba
CWFQ,FRELIGHSBURG,Frelighsburg,71373,7022579,45.039583,-72.856117,226.074,MSC,CA,AUTO,Quebec
CWFW,BAIE-COMEAU,Baie-Comeau,71829,704S001,49.259088,-68.145632,129.8,MSC,CA,AUTO,Quebec
CWFX,COLVILLE LAKE,Colville Lake,71055,2200824,67.021574,-126.123204,272.3,MSC,CA,AUTO,Northwest Territories
CWGB,BALLENAS ISLAND,Ballenas Island,71769,1020590,49.350544,-124.160498,14.51,MSC,CA,AUTO,British Columbia
CWGD,GODERICH,Goderich,71261,6122847,43.764791,-81.712275,215.25,MSC,CA,AUTO,Ontario
CWGH,GRENADIER ISLAND,Grenadier Island,71281,6103024,44.455,-75.862,83.5,MSC,CA,AUTO,Ontario
CWGL,LAGOON CITY,Lagoon City,71282,6114295,44.548,-79.221,211.5,MSC,CA,AUTO,Ontario
CWGM,WATERTON PARK GATE,Waterton Park Gate,71154,3056214,49.1311,-113.8086,1289,MSC,CA,AUTO,Alberta
CWGN,GRETNA (AUT),Gretna (Aut),71441,5021220,49.030841,-97.560191,251.606,MSC,CA,AUTO,Manitoba
CWGP,PEMBERTON AIRPORT,Pemberton Airport,71777,1086082,50.305556,-122.733889,207.3,MSC,CA,AUTO,British Columbia
CWGR,ILES DE LA MADELEINE,Iles De La Madeleine,71710,7053KGR,47.425194,-61.774667,9.6,MSC,CA,AUTO,Quebec
CWGT,SISTERS ISLAND,Sisters Island,71781,1027403,49.4866,-124.4349,20,MSC,CA,AUTO,British Columbia
CWGW,SPARWOOD CS,Sparwood Cs,71782,1157631,49.745,-114.8839,1137.9,MSC,CA,AUTO,British Columbia
CWGX,GILLAM,Gillam,73087,5060999,56.35936,-94.70411,145.5,MSC,CA,AUTO,Manitoba
CWGY,ESTHER 1,Esther 1,71240,301B460,51.6697,-110.2061,702.3,MSC,CA,AUTO,Alberta
CWGZ,Grise Fiord,Grise Fiord,,2402360,76.42584,-82.90806,41.1,NAV CANADA,NC-AWOS,AUTO,Nunavut
CWGZ,Grise Fiord,Grise Fiord,,2402338,76.42584,-82.90806,41.1,NAV CANADA,NC-HWOS,MAN,Nunavut
CWHC,VANCOUVER HARBOUR CS,Vancouver Harbour Cs,71201,1108446,49.2954,-123.1219,4,MSC,CA,AUTO,British Columbia
CWHI,THREE HILLS,Three Hills,71249,3026479,51.767523,-113.205582,857,GovAB,CA,AUTO,Alberta
CWHO,HOPEDALE (AUT),Hopedale (Aut),71900,8502400,55.45,-60.2167,10.1,MSC,CA,AUTO,Newfoundland and Labrador
CWHP,HEATH POINT,Heath Point,71423,7053038,49.085222,-61.700494,5.045,MSC,CA,AUTO,Quebec
CWHQ,DESCHAMBAULT,Deschambault,71389,7011983,46.690641,-71.971732,60.736,MSC,CA,AUTO,Quebec
CWHT,HAINES JUNCTION,Haines Junction,71505,2100630,60.772669,-137.580447,600,MSC,CA,AUTO,Yukon
CWHV,BEAUCEVILLE,Beauceville,71323,7028754,46.204894,-70.785097,229.693,MSC,CA,AUTO,Quebec
CWIC,ISACHSEN (AUT),Isachsen (Aut),71074,2402604,78.792272,-103.55458,59.5,MSC,CA,AUTO,Nunavut
CWID,FORT PROVIDENCE,Fort Providence,71087,2201799,61.3169,-117.6019,162.9,MSC,CA,AUTO,Northwest Territories
CWIG,ILE AUX GRUES,Ile Aux Grues,,701LBPH,47.0736,-70.5331,18.3,MSC,CA,AUTO,Quebec
CWII,VICTORIA BEACH (AUT),Victoria Beach (Aut),71552,5032951,50.7,-96.5667,221.6,MSC,CA,AUTO,Manitoba
CWIJ,LUPIN CS,Lupin Cs,71470,230N002,65.755618,-111.245862,489.7,MSC,CA,AUTO,Nunavut
CWIK,BROADVIEW,Broadview,71861,4010879,50.3681,-102.5708,601.3,MSC,CA,AUTO,Saskatchewan
CWIL,HAT ISLAND,Hat Island,71084,2302370,68.31806,-100.0869,36,DND,DND-AWOS,AUTO,Nunavut
CWIP,POINTE NOIRE CS,Pointe Noire Cs,71390,704Q003,50.162399,-66.433959,29.097,MSC,CA,AUTO,Quebec
CWIS,CHARLEVOIX (MRC),Charlevoix (Mrc),71319,7041312,47.284039,-70.637251,722.453,MSC,CA,AUTO,Quebec
CWIT,STE-CLOTILDE,Ste-Clotilde,71614,7027039,45.166722,-73.6782,53.291,MSC,CA,AUTO,Quebec
CWIW,WATROUS EAST,Watrous East,71511,4018642,51.667115,-105.398394,525.114,MSC,CA,AUTO,Saskatchewan
CWIX,MISTOOK,Mistook,71381,7065012,48.598333,-71.715944,112.5,MSC,CA,AUTO,Quebec
CWIZ,L 'ACADIE,L 'Acadie,71372,702LED4,45.293967,-73.349847,43.8,MSC,CA,AUTO,Quebec
CWJB,STE-FOY (U. LAVAL),Ste-Foy (U. Laval),71392,701Q004,46.780269,-71.287447,91.4,MSC,CA,AUTO,Quebec
CWJC,ENNADAI LAKE (AUT),Ennadai Lake (Aut),71923,2301102,61.131511,-100.883392,351.244,MSC,CA,AUTO,Nunavut
CWJD,GRAND RAPIDS (AUT),Grand Rapids (Aut),71858,5031A10,53.1864,-99.2678,224,MSC,CA,AUTO,Manitoba
CWJH,SOUTHEND,Southend,71451,4067655,56.337567,-103.286918,344.103,MSC,CA,AUTO,Saskatchewan
CWJI,ASSINIBOIA AIRPORT,Assiniboia Airport,71487,4020286,49.729471,-105.946243,723.862,MSC,CA,AUTO,Saskatchewan
CWJL,FORT LIARD,Fort Liard,71497,2201579,60.235775,-123.472672,214.4,MSC,CA,AUTO,Northwest Territories
CWJN,HERSCHEL ISLAND,Herschel Island,71501,2100636,69.567788,-138.911241,2.4,MSC,CA,AUTO,Yukon
CWJO,JONQUIERE,Jonquiere,71617,7063370,48.425026,-71.142508,128.257,MSC,CA,AUTO,Quebec
CWJR,CRESTON CAMPBELL SCIENTIFIC,Creston Campbell Scientific,71770,114B1F0,49.081663,-116.500765,642.168,MSC,CA,AUTO,British Columbia
CWJT,ST-JOVITE,St-Jovite,71376,703GDKB,46.080518,-74.555757,235.406,MSC,CA,AUTO,Quebec
CWJU,LANGARA ISLAND RCS,Langara Island Rcs,71903,1054503,54.2553,-133.0583,50.5,MSC,CA,AUTO,British Columbia
CWJV,VERNON AUTO,Vernon Auto,71115,1128582,50.2233,-119.1936,484,MSC,CA,AUTO,British Columbia
CWJW,JASPER WARDEN,Jasper Warden,71486,3053536,52.92655,-118.029733,1021.5,MSC,CA,AUTO,Alberta
CWJX,LEADER AIRPORT,Leader Airport,71459,402DAF0,50.9095,-109.5014,677,MSC,CA,AUTO,Saskatchewan
CWKA,GRIEF POINT,Grief Point,,1043304,49.8046,-124.5252,10,MSC,CA,AUTO,British Columbia
CWKB,CORNER BROOK,Corner Brook,71973,8401298,48.93519,-57.909741,151.8,MSC,CA,AUTO,Newfoundland and Labrador
CWKD,BONNARD 1,Bonnard 1,71383,7060826,50.7289,-71.0131,498,MSC,CA,AUTO,Quebec
CWKF,LILLOOET,Lillooet,71999,1114619,50.6837,-121.9341,240.3,MSC,CA,AUTO,British Columbia
CWKG,KEJIMKUJIK 1,Kejimkujik 1,71599,8202592,44.4322,-65.2031,127.6,MSC,CA,AUTO,Nova Scotia
CWKH,MALAHAT,Malahat,71774,1014820,48.5749,-123.5299,366.8,MSC,CA,AUTO,British Columbia
CWKM,KOMAKUK BEACH,Komakuk Beach,71046,2100682,69.61194,-140.1969,13,DND,DND-AWOS,AUTO,Yukon
CWKO,ROCKGLEN (AUT),Rockglen (Aut),71135,4036844,49.1678,-105.9792,918.5,MSC,CA,AUTO,Saskatchewan
CWKP,KEATS POINT,Keats Point,71058,2202663,69.66667,-121.6667,330,DND,DND-AWOS,AUTO,Northwest Territories
CWKV,Hope Slide,Hope Slide,,1113582,49.2833,-121.233,687.8,NAV CANADA,NC-HWOS,MAN,British Columbia
CWKX,DEASE LAKE (AUT),Dease Lake (Aut),71222,119BLM0,58.425953,-130.024949,802.847,MSC,CA,AUTO,British Columbia
CWLB,LAC LA BICHE CLIMATE,Lac La Biche Climate,71316,3063686,54.7689,-112.0236,568.6,MSC,CA,AUTO,Alberta
CWLC,LUCY ISLAND LIGHTSTATION,Lucy Island Lightstation,71220,1064728,54.2959,-130.609,45.6,MSC,CA,AUTO,British Columbia
CWLE,LUCKY LAKE,Lucky Lake,71455,4024714,50.95,-107.15,666.2,MSC,CA,AUTO,Saskatchewan
CWLF,LANSDOWNE HOUSE (AUT),Lansdowne House (Aut),71846,6014353,52.196148,-87.93609,252.772,MSC,CA,AUTO,Ontario
CWLG,LITTLE CHICAGO,Little Chicago,71164,220B6Q3,67.1792,-130.2281,63.7,MSC,CA,AUTO,Northwest Territories
CWLI,LIVERPOOL BAY,Liverpool Bay,71960,220B68C,69.60417,-130.9106,102,DND,DND-AWOS,AUTO,Northwest Territories
CWLJ,MEADOW LAKE,Meadow Lake,71970,406N0NM,54.128616,-108.510957,480.885,MSC,CA,AUTO,Saskatchewan
CWLM,VICTORIA GONZALES CS,Victoria Gonzales Cs,71200,1018611,48.413302,-123.324775,69,MSC,CA,AUTO,British Columbia
CWLP,HERBERT ISLAND (AUT),Herbert Island (Aut),71485,1063461,50.9399,-127.6322,14.9,MSC,CA,AUTO,British Columbia
CWLS,MOUNT FOREST,Mount Forest,71631,6145504,43.989419,-80.744694,414.639,MSC,CA,AUTO,Ontario
CWLV,WASKESIU LAKE,Waskesiu Lake,71454,4068559,53.914831,-106.069792,568.943,MSC,CA,AUTO,Saskatchewan
CWLX,LONGSTAFF BLUFF,Longstaff Bluff,71091,2402684,68.89861,-75.14083,161,DND,DND-AWOS,AUTO,Nunavut
CWLY,Lytton,Lytton,71812,1114738,50.23333,-121.56667,225,NAV CANADA,NC-AWOS,AUTO,British Columbia
CWME,CATHEDRAL POINT (AUT),Cathedral Point (Aut),71482,1061458,52.187475,-127.471103,27,MSC,CA,AUTO,British Columbia
CWMI,MISCOU ISLAND (AUT),Miscou Island (Aut),71719,8103050,48.008918,-64.49447,5.2,MSC,CA,AUTO,New Brunswick
CWMJ,MANIWAKI AIRPORT,Maniwaki Airport,71721,7034482,46.273555,-75.98775,200.73,MSC,CA,AUTO,Quebec
CWMM,PITT MEADOWS CS,Pitt Meadows Cs,71775,1106178,49.208307,-122.690076,6,MSC,CA,AUTO,British Columbia
CWMQ,MAPLE CREEK,Maple Creek,71453,4024919,49.9025,-109.4661,768.2,MSC,CA,AUTO,Saskatchewan
CWMT,WHATI,Whati,71163,2202678,63.1343,-117.244497,270.48,MSC,CA,AUTO,Northwest Territories
CWMX,MILDRED LAKE,Mildred Lake,71255,3064528,57.040366,-111.560452,311.1,MSC,CA,AUTO,Alberta
CWMZ,WESTERN ISLAND (AUT),Western Island (Aut),71438,6119M51,45.0333,-80.3667,191.1,MSC,CA,AUTO,Ontario
CWNC,COBOURG (AUT),Cobourg (Aut),71431,6151684,43.9561,-78.151,78,MSC,CA,AUTO,Ontario
CWND,PELLY ISLAND,Pelly Island,71502,2203095,69.622455,-135.435683,18.2,MSC,CA,AUTO,Northwest Territories
CWNE,NORTH CAPE,North Cape,71987,8300516,47.058163,-63.99707,4.2,MSC,CA,AUTO,Prince Edward Island
CWNH,RIVIERE-DU-LOUP,Riviere-Du-Loup,71715,7056616,47.806084,-69.548447,147.039,MSC,CA,AUTO,Quebec
CWNK,CARMAN U OF M CS,Carman U Of M Cs,71147,502I001,49.498195,-98.029732,267.965,MSC,CA,AUTO,Manitoba
CWNM,NELSON CS,Nelson Cs,71776,1145M29,49.4914,-117.3053,535.9,MSC,CA,AUTO,British Columbia
CWNO,Pink Mountain,Pink Mountain,,1186173,56.5607,-122.7169,960.1,NAV CANADA,NC-HWOS,MAN,British Columbia
CWNP,NAKUSP AIRPORT,Nakusp Airport,71216,1145297,50.269444,-117.817222,513.1,MSC,CA,AUTO,British Columbia
CWNQ,NICOLET,Nicolet,71723,7025442,46.2258,-72.6572,8.3,MSC,CA,AUTO,Quebec
CWNS,NORTHEAST MARGAREE,Northeast Margaree,73027,8204154,46.368502,-60.976133,46.121,MSC,CA,AUTO,Nova Scotia
CWNV,MACMILLAN PASS,Macmillan Pass,71990,2100693,63.24366,-130.037282,1378.927,MSC,CA,AUTO,Yukon
CWNZ,NAGAGAMI (AUT),Nagagami (Aut),71832,6075543,49.7468,-84.1637,265.5,MSC,CA,AUTO,Ontario
CWOB,BREVOORT ISLAND,Brevoort Island,71097,2400565,63.33972,-64.14583,376,DND,DND-AWOS,AUTO,Nunavut
CWOC,NEW CARLISLE 1,New Carlisle 1,71619,7055422,48.011975,-65.331674,46.94,MSC,CA,AUTO,Quebec
CWOD,NORMANDIN,Normandin,71379,7065639,48.841979,-72.54643,152.397,MSC,CA,AUTO,Quebec
CWOE,ONEFOUR CDA,Onefour Cda,71116,3044923,49.122958,-110.469033,935.754,MSC,CA,AUTO,Alberta
CWOI,IVVAVIK NAT. PARK,Ivvavik Nat. Park,71978,2100660,69.1644,-140.15,244.8,MSC,CA,AUTO,Yukon
CWOJ,OAKPOINT MARINE,Oakpoint Marine,71144,504K0NM,50.499494,-98.036614,251.907,MSC,CA,AUTO,Manitoba
CWOK,ELBOW CS,Elbow Cs,71450,4022359,51.125731,-106.582299,593.904,MSC,CA,AUTO,Saskatchewan
CWON,DAWSON,Dawson,71966,2100LRP,64.05,-139.1333,375.8,MSC,CA,AUTO,Yukon
CWOO,MCCREARY,Mccreary,71149,5043158,50.711861,-99.530045,351.076,MSC,CA,AUTO,Manitoba
CWOV,BRETON PLOTS,Breton Plots,71233,3010816,53.089444,-114.440833,851.5,GovAB,CA,AUTO,Alberta
CWOY,WYNYARD (AUT),Wynyard (Aut),71865,40190LN,51.765816,-104.19242,560.803,MSC,CA,AUTO,Saskatchewan
CWPA,HENDRICKSON CREEK,Hendrickson Creek,71979,3063135,53.79428,-118.445061,1449.3,MSC,CA,AUTO,Alberta
CWPC,PORT COLBORNE (AUT),Port Colborne (Aut),71463,613F606,42.8667,-79.25,185,MSC,CA,AUTO,Ontario
CWPD,L'ETAPE,L'Etape,71382,7015791,47.562227,-71.22901,790.618,MSC,CA,AUTO,Quebec
CWPE,POINT LEPREAU CS,Point Lepreau Cs,71699,8104201,45.073152,-66.449394,7.5,MSC,CA,AUTO,New Brunswick
CWPF,ESQUIMALT HARBOUR,Esquimalt Harbour,71798,1012710,48.431972,-123.439333,4.7,MSC,CA,AUTO,British Columbia
CWPG,PORTAGE SOUTHPORT,Portage Southport,71851,5012324,49.903044,-98.283776,271.945,MSC,CA,AUTO,Manitoba
CWPK,PARENT,Parent,71726,7075800,47.922492,-74.624283,445.194,MSC,CA,AUTO,Quebec
CWPL,PICKLE LAKE (AUT),Pickle Lake (Aut),71835,6016525,51.4492,-90.2181,391.5,MSC,CA,AUTO,Ontario
CWPN,PEMBERTON AIRPORT (WINDS),Pemberton Airport (Winds),,1086081,50.3022,-122.7381,205,MSC,CA,AUTO,British Columbia
CWPO,PILOT MOUND (AUT),Pilot Mound (Aut),71148,5022125,49.187933,-98.9064,472.5,MSC,CA,AUTO,Manitoba
CWPR,PRINCETON CS,Princeton Cs,71032,112FN0M,49.465159,-120.514858,698.096,MSC,CA,AUTO,British Columbia
CWPS,LONG POINT (AUT),Long Point (Aut),71464,6134F10,42.5486,-80.0494,180,MSC,CA,AUTO,Ontario
CWPU,PUNTZI MOUNTAIN AIRPORT (AUT),Puntzi Mountain Airport (Aut),71050,1086558,52.1144,-124.1356,911.3,MSC,CA,AUTO,British Columbia
CWPX,CAPE PEEL WEST,Cape Peel West,71064,2400697,69.03648,-107.82165,165,DND,DND-AWOS,AUTO,Nunavut
CWPZ,BURNS LAKE DECKER LAKE,Burns Lake Decker Lake,71952,1091174,54.383092,-125.95879,714.2,MSC,CA,AUTO,British Columbia
CWQB,QUEBEC/JEAN LESAGE INTL,Quebec/Jean Lesage Intl,,701S001,46.803625,-71.381678,60.658,MSC,CA,AUTO,Quebec
CWQC,PORT ALBERNI AIRPORT (AUT),Port Alberni Airport (Aut),71475,1036B06,49.316583,-124.926833,78.4,MSC,CA,AUTO,British Columbia
CWQD,POINTE DE L'ISLET,Pointe De L'Islet,71190,7046059,48.135354,-69.716525,7,MSC,CA,AUTO,Quebec
CWQF,RABBIT KETTLE,Rabbit Kettle,71980,2203342,61.9631,-127.2092,619.4,MSC,CA,AUTO,Northwest Territories
CWQH,LENNOXVILLE,Lennoxville,71611,7024280,45.368586,-71.823501,181.825,MSC,CA,AUTO,Quebec
CWQK,RACE ROCKS,Race Rocks,71778,1016640,48.2985,-123.5314,31,MSC,CA,AUTO,British Columbia
CWQL,LETHBRIDGE CDA,Lethbridge Cda,71243,3033890,49.6846,-112.7676,911.1,MSC,CA,AUTO,Alberta
CWQM,CAP-ROUGE,Cap-Rouge,71186,7041166,48.374533,-70.535259,7.3,MSC,CA,AUTO,Quebec
CWQO,ILE BICQUETTE,Ile Bicquette,71385,705LKPQ,48.415205,-68.892876,7,MSC,CA,AUTO,Quebec
CWQP,POINT PETRE (AUT),Point Petre (Aut),71430,6156559,43.8395,-77.1515,80.1,MSC,CA,AUTO,Ontario
CWQQ,LACOMBE CDA 2,Lacombe Cda 2,71242,3023722,52.448986,-113.756766,858.05,MSC,CA,AUTO,Alberta
CWQR,ILE AUX PERROQUETS,Ile Aux Perroquets,71375,7043B79,50.220664,-64.207262,9,MSC,CA,AUTO,Quebec
CWQS,KINDAKUN ROCKS (AUT),Kindakun Rocks (Aut),71472,1054222,53.3156,-132.772,15.15,MSC,CA,AUTO,British Columbia
CWQV,POINTE CLAVEAU,Pointe Claveau,71189,704607C,48.2605,-70.1146,4,MSC,CA,AUTO,Quebec
CWQW,CAPE WHITTLE,Cape Whittle,71374,7041100,50.162833,-60.061603,7,MSC,CA,AUTO,Quebec
CWQY,HANBURY RIVER,Hanbury River,71963,2202351,63.590782,-105.154276,318.5,MSC,CA,AUTO,Northwest Territories
CWRA,CAPE RACE (AUT),Cape Race (Aut),71800,8401000,46.66,-53.0764,26.5,MSC,CA,AUTO,Newfoundland and Labrador
CWRD,RED EARTH,Red Earth,71246,3075488,56.552,-115.2778,547.3,MSC,CA,AUTO,Alberta
CWRH,RESOLUTION ISLAND,Resolution Island,71972,2403602,61.6,-64.63333,365,DND,DND-AWOS,AUTO,Nunavut
CWRJ,ROSETOWN EAST,Rosetown East,71510,4046884,51.565288,-107.923609,587.5,MSC,CA,AUTO,Saskatchewan
CWRK,BANCROFT AUTO,Bancroft Auto,71294,616I001,45.071498,-77.879936,330.73,MSC,CA,AUTO,Ontario
CWRM,ROCKY MTN HOUSE (AUT),Rocky Mtn House (Aut),71928,3015523,52.42131,-114.911984,971.614,MSC,CA,AUTO,Alberta
CWRN,HART ISLAND (AUT),Hart Island (Aut),71419,8202318,45.343127,-60.989336,9.5,MSC,CA,AUTO,Nova Scotia
CWRO,ROSE SPIT (AUT),Rose Spit (Aut),71477,1056869,54.1591,-131.6613,8.1,MSC,CA,AUTO,British Columbia
CWRR,ROCK RIVER,Rock River,71506,2100935,66.981266,-136.220922,734.501,MSC,CA,AUTO,Yukon
CWRT,CROWSNEST,Crowsnest,71236,3051R4R,49.6278,-114.482,1303,MSC,CA,AUTO,Alberta
CWRU,SOLANDER ISLAND (AUT),Solander Island (Aut),71479,1037553,50.111508,-127.940311,94.1,MSC,CA,AUTO,British Columbia
CWRV,CAMROSE,Camrose,71254,3011240,53.042863,-112.821616,740,MSC,CA,AUTO,Alberta
CWRX,ROWLEY ISLAND,Rowley Island,71088,2403625,69.0833,-79.0333,41,DND,DND-AWOS,AUTO,Nunavut
CWRY,MILK RIVER,Milk River,71244,3044533,49.133997,-112.051044,1051.6,MSC,CA,AUTO,Alberta
CWRZ,CAP-D'ESPOIR,Cap-D'Espoir,71429,7051050,48.419409,-64.316844,15.647,MSC,CA,AUTO,Quebec
CWSA,Sable Island,Sable Island,71595,8204703,43.92944,-59.95972,1.2,NAV CANADA,NC-AWOS,AUTO,Nova Scotia
CWSB,POINT ATKINSON,Point Atkinson,71037,1106200,49.330278,-123.264722,15,MSC,CA,AUTO,British Columbia
CWSD,SUMMERSIDE,Summerside,71702,8300596,46.4413,-63.837396,13,MSC,CA,AUTO,Prince Edward Island
CWSF,CAP-MADELEINE,Cap-Madeleine,71425,7051163,49.25072,-65.324634,27.324,MSC,CA,AUTO,Quebec
CWSG,CAP-CHAT,Cap-Chat,71428,705S002,49.109068,-66.654533,4.201,MSC,CA,AUTO,Quebec
CWSK,SQUAMISH AIRPORT,Squamish Airport,71207,10476F0,49.783208,-123.161194,55.5,MSC,CA,AUTO,British Columbia
CWSL,SALMON ARM CS,Salmon Arm Cs,71218,116FRMN,50.703,-119.290677,352,MSC,CA,AUTO,British Columbia
CWSN,LONDON CS,London Cs,71622,6144478,43.026833,-81.14875,279.5,MSC,CA,AUTO,Ontario
CWSP,SHERINGHAM POINT,Sheringham Point,71780,1017254,48.3768,-123.921,25,MSC,CA,AUTO,British Columbia
CWSR,SPIRITWOOD WEST,Spiritwood West,71133,4067723,53.366186,-107.556173,591.883,MSC,CA,AUTO,Saskatchewan
CWSS,ST STEPHEN,St Stephen,71607,8104935,45.2102,-67.2529,27.5,MSC,CA,AUTO,New Brunswick
CWST,LA POCATIERE,La Pocatiere,71713,7054096,47.353955,-70.029211,31.381,MSC,CA,AUTO,Quebec
CWSU,SPRAGUE,Sprague,71449,5022759,49.0236,-95.5983,330.3,MSC,CA,AUTO,Manitoba
CWSV,BLUE RIVER CS,Blue River Cs,71883,1160H99,52.128917,-119.289848,680.034,MSC,CA,AUTO,British Columbia
CWSW,Sparwood/Elk Valley,Sparwood/Elk Valley,,1157635,49.83336,-114.88435,1158.2,NAV CANADA,NC-AWOS,AUTO,British Columbia
CWSW,Sparwood/Elk Valley,Sparwood/Elk Valley,,1157632,49.83336,-114.88435,1158.2,NAV CANADA,NC-HWOS,MAN,British Columbia
CWSY,SACHS HARBOUR CLIMATE,Sachs Harbour Climate,71467,2503648,71.9925,-125.2542,88.5,MSC,CA,AUTO,Northwest Territories
CWSZ,FISHER BRANCH (AUT),Fisher Branch (Aut),71442,50309J6,51.083421,-97.554481,252.842,MSC,CA,AUTO,Manitoba
CWTA,MCTAVISH,Mctavish,71612,7024745,45.504926,-73.579185,72.583,MSC,CA,AUTO,Quebec
CWTD,ROBERTSON LAKE (AUT),Robertson Lake (Aut),71490,2303610,65.099298,-102.429464,244.7,MSC,CA,AUTO,Nunavut
CWTE,SAMBAA K'E,Sambaa K'E,71166,220CQHR,60.428916,-121.258611,503.1,MSC,CA,AUTO,Northwest Territories
CWTH,Tetsa River,Tetsa River,,1195800,58.65,-123.95,810,NAV CANADA,NC-HWOS,MAN,British Columbia
CWTM,MARTICOT ISLAND,Marticot Island,71692,840KN90,47.32821,-54.584116,29.2,MSC,CA,AUTO,Newfoundland and Labrador
CWTN,CAP-TOURMENTE,Cap-Tourmente,71384,7041JG6,47.0786,-70.7808,6.569,MSC,CA,AUTO,Quebec
CWTQ,MONTREAL/PIERRE ELLIOTT TRUDEAU INTL,Montreal/Pierre Elliott Trudeau Intl,71183,702S006,45.467803,-73.741886,32.063,MSC,CA,AUTO,Quebec
CWTS,SCOTT CDA,Scott Cda,71489,4047240,52.359879,-108.834815,661.1,MSC,CA,AUTO,Saskatchewan
CWTT,LAC MEMPHREMAGOG,Lac Memphremagog,,702CFGG,45.267639,-72.161667,208.7,MSC,CA,AUTO,Quebec
CWTX,ROYAL ISLAND (AUT),Royal Island (Aut),71859,6037201,49.4681,-94.7633,330.3,MSC,CA,AUTO,Ontario
CWTY,TROIS-RIVIERES,Trois-Rivieres,71724,7018562,46.353632,-72.515573,7.261,MSC,CA,AUTO,Quebec
CWUK,CHAPAIS,Chapais,71824,7091299,49.822269,-74.975442,381.1,MSC,CA,AUTO,Quebec
CWUM,FARO (AUT),Faro (Aut),71949,2100518,62.2075,-133.3758,719,MSC,CA,AUTO,Yukon
CWUS,SUMMERLAND CS,Summerland Cs,71768,112G8L1,49.559178,-119.645871,445.933,MSC,CA,AUTO,British Columbia
CWUT,SHOAL LAKE CS,Shoal Lake Cs,71150,5012654,50.454384,-100.603479,560.417,MSC,CA,AUTO,Manitoba
CWUW,DEWAR LAKES,Dewar Lakes,71092,2401030,68.65,-71.16667,527,DND,DND-AWOS,AUTO,Nunavut
CWUX,LA BAIE,La Baie,71388,706Q001,48.2981,-70.9195,151.64,MSC,CA,AUTO,Quebec
CWUY,ROUYN,Rouyn,71734,7086716,48.245827,-79.0338,319.591,MSC,CA,AUTO,Quebec
CWVC,SWIFT CURRENT CDA,Swift Current Cda,71446,4028060,50.2667,-107.7333,826.5,MSC,CA,AUTO,Saskatchewan
CWVD,BROUGHTON ISLAND,Broughton Island,71096,2400570,67.53556,-63.78889,584,DND,DND-AWOS,AUTO,Nunavut
CWVF,SANDHEADS CS,Sandheads Cs,71209,1107010,49.1059,-123.3034,13,MSC,CA,AUTO,British Columbia
CWVH,STORM HILLS,Storm Hills,71052,220LQJJ,68.75,-133.9333,261,DND,DND-AWOS,AUTO,Northwest Territories
CWVI,VEGREVILLE,Vegreville,71458,3016GF0,53.5053,-112.0978,640.5,MSC,CA,AUTO,Alberta
CWVN,VAL MARIE SOUTHEAST,Val Marie Southeast,71137,4038412,49.0583,-107.5858,797.5,MSC,CA,AUTO,Saskatchewan
CWVO,VAUXHALL CDA CS,Vauxhall Cda Cs,71251,3036682,50.05,-112.1333,779,MSC,CA,AUTO,Alberta
CWVP,CYPRESS HILLS PARK,Cypress Hills Park,71139,4031999,49.6406,-109.5144,1272.1,MSC,CA,AUTO,Saskatchewan
CWVQ,STE-ANNE-DE-BELLEVUE 1,Ste-Anne-De-Bellevue 1,71377,702FHL8,45.427,-73.92892,38.871,MSC,CA,AUTO,Quebec
CWVT,BUFFALO NARROWS (AUT),Buffalo Narrows (Aut),71077,4060983,55.8406,-108.4206,441.6,MSC,CA,AUTO,Saskatchewan
CWVU,BRIER ISLAND,Brier Island,71988,8200604,44.285664,-66.342409,14.768,MSC,CA,AUTO,Nova Scotia
CWVW,GRATES COVE,Grates Cove,71336,840B053,48.169867,-52.938766,17.9,MSC,CA,AUTO,Newfoundland and Labrador
CWWA,WEST VANCOUVER AUT,West Vancouver Aut,71784,1108824,49.347059,-123.193392,171.51,MSC,CA,AUTO,British Columbia
CWWB,BURLINGTON PIER,Burlington Pier,71437,6151061,43.300458,-79.7916,78.5,MSC,CA,AUTO,Ontario
CWWC,COLLINS BAY,Collins Bay,71075,4061620,58.228968,-103.677934,414.1,MSC,CA,AUTO,Saskatchewan
CWWE,WESTERN HEAD,Western Head,71411,8206240,43.99,-64.664167,11.26,MSC,CA,AUTO,Nova Scotia
CWWF,WEYBURN,Weyburn,71452,401HP5R,49.694566,-103.800814,587.171,MSC,CA,AUTO,Saskatchewan
CWWK,WHITE ROCK,White Rock,71785,1108910,49.0181,-122.7839,13,MSC,CA,AUTO,British Columbia
CWWL,BONILLA ISLAND (AUT),Bonilla Island (Aut),71484,1060R0K,53.4929,-130.639,14.3,MSC,CA,AUTO,British Columbia
CWWN,PEAWANUCK (AUT),Peawanuck (Aut),71434,6016295,54.990319,-85.440717,53.94,MSC,CA,AUTO,Ontario
CWWO,WILLOW CREEK 1,Willow Creek 1,71252,306GE70,53.3856,-118.3475,1371.2,MSC,CA,AUTO,Alberta
CWWP,WASAGAMING,Wasagaming,71444,5013117,50.655,-99.9419,628.9,MSC,CA,AUTO,Manitoba
CWWQ,Muncho Lake,Muncho Lake,,1195251,59.0167,-125.767,836.5,NAV CANADA,NC-HWOS,MAN,British Columbia
CWWS,GEORGE ISLAND (AUT),George Island (Aut),71445,5030984,52.818739,-97.616445,223.722,MSC,CA,AUTO,Manitoba
CWWZ,PORT WELLER (AUT),Port Weller (Aut),71432,6136699,43.25,-79.2167,81,MSC,CA,AUTO,Ontario
CWXA,BOW VALLEY,Bow Valley,71232,3050778,51.0831,-115.066,1321.3,MSC,CA,AUTO,Alberta
CWXB,ROBLIN,Roblin,71553,5012469,51.1833,-101.3628,541,MSC,CA,AUTO,Manitoba
CWXC,ONATCHIWAY,Onatchiway,71387,7065738,48.894154,-71.03168,308.795,MSC,CA,AUTO,Quebec
CWXG,LAST MOUNTAIN CS,Last Mountain Cs,71556,4014156,51.41568,-105.242431,498.775,MSC,CA,AUTO,Saskatchewan
CWXI,FEROLLE POINT (AUT),Ferolle Point (Aut),71406,8401565,51.0167,-57.1,7.8,MSC,CA,AUTO,Newfoundland and Labrador
CWXL,BOW ISLAND,Bow Island,71231,3030768,49.7344,-111.4503,817,MSC,CA,AUTO,Alberta
CWXN,STAVELY AAFC,Stavely Aafc,71555,3036099,50.1833,-113.8833,1363.64,MSC,CA,AUTO,Alberta
CWXP,PANGNIRTUNG,Pangnirtung,71826,2403049,66.143403,-65.711348,34.129,MSC,CA,AUTO,Nunavut
CWXR,CROKER RIVER,Croker River,71059,230J01Q,69.27556,-119.2189,69,DND,DND-AWOS,AUTO,Nunavut
CWXS,BAS CARAQUET,Bas Caraquet,71598,8100467,47.80244,-64.83349,6.4,MSC,CA,AUTO,New Brunswick
CWYE,OUTLOOK PFRA,Outlook Pfra,71551,4055736,51.476096,-107.05424,542.5,MSC,CA,AUTO,Saskatchewan
CWYF,THOMSEN RIVER,Thomsen River,71916,2503886,73.231011,-119.540672,42.7,MSC,CA,AUTO,Northwest Territories
CWYH,GAMETI,Gameti,71165,2203359,64.115005,-117.31299,218.894,MSC,CA,AUTO,Northwest Territories
CWYI,POOLS ISLAND,Pools Island,71931,840BR7C,49.1122,-53.5811,17,MSC,CA,AUTO,Newfoundland and Labrador
CWYJ,VICTORIA UNIVERSITY CS,Victoria University Cs,71783,1018598,48.457,-123.3046,61.1,MSC,CA,AUTO,British Columbia
CWYL,YOHO PARK,Yoho Park,71786,11790J1,51.4429,-116.3445,1603.3,MSC,CA,AUTO,British Columbia
CWYQ,POINTE-AU-PERE (INRS),Pointe-Au-Pere (Inrs),71554,7056068,48.51391,-68.468336,5.175,MSC,CA,AUTO,Quebec
CWYW,ARMSTRONG (AUT),Armstrong (Aut),71841,6040325,50.2936,-88.9053,324.2,MSC,CA,AUTO,Ontario
CWYY,OSOYOOS CS,Osoyoos Cs,71215,1125852,49.0283,-119.4411,283.9,MSC,CA,AUTO,British Columbia
CWZA,AGASSIZ RCS,Agassiz Rcs,71113,1100119,49.242793,-121.759712,18.525,MSC,CA,AUTO,British Columbia
CWZE,CARBERRY CS,Carberry Cs,71170,5010547,49.9058,-99.3574,384.8,MSC,CA,AUTO,Manitoba
CWZG,BANFF CS,Banff Cs,71122,3050519,51.1936,-115.5524,1398,MSC,CA,AUTO,Alberta
CWZL,CUMSHEWA ISLAND,Cumshewa Island,71771,1062251,53.0303,-131.6014,17.8,MSC,CA,AUTO,British Columbia
CWZN,SAGONA ISLAND,Sagona Island,71408,8403255,47.3678,-55.7947,68.5,MSC,CA,AUTO,Newfoundland and Labrador
CWZO,KELP REEFS,Kelp Reefs,,1013998,48.5476,-123.2369,12.3,MSC,CA,AUTO,British Columbia
CWZQ,GRAND ETANG,Grand Etang,73030,8201969,46.54712,-61.04915,14,MSC,CA,AUTO,Nova Scotia
CWZR,MARGARET LAKE,Margaret Lake,71977,2100697,68.8006,-140.8475,569.2,MSC,CA,AUTO,Yukon
CWZT,DAUPHIN CS,Dauphin Cs,71550,5040681,51.100387,-100.057345,305.475,MSC,CA,AUTO,Manitoba
CWZU,SHEARWATER JETTY,Shearwater Jetty,71330,8205093,44.628055,-63.5225,6,DND,CA,AUTO,Nova Scotia
CWZV,CAPE ST JAMES CS,Cape St James Cs,71107,1051351,51.9358,-131.0158,89.3,MSC,CA,AUTO,British Columbia
CWZW,TESLIN (AUT),Teslin (Aut),71045,2101102,60.174602,-132.733739,717.351,MSC,CA,AUTO,Yukon
CWZZ,SAGLEK,Saglek,71335,8503249,58.33333,-62.58586,488,DND,DND-AWOS,AUTO,Newfoundland and Labrador
CXAF,ABEE AGDM,Abee Agdm,71285,3010010,54.283333,-112.966667,664,GovAB,CA,AUTO,Alberta
CXAG,ANDREW AGDM,Andrew Agdm,71286,3010237,53.916944,-112.279167,625,GovAB,CA,AUTO,Alberta
CXAJ,ATMORE AGDM,Atmore Agdm,71287,3060406,54.781667,-112.825,574,GovAB,CA,AUTO,Alberta
CXAK,STETTLER AGDM,Stettler Agdm,71289,3016124,52.346944,-112.595556,795,GovAB,CA,AUTO,Alberta
CXAT,ARCTIC BAY CS,Arctic Bay Cs,71592,2400404,72.99275,-85.011575,11.5,MSC,CA,AUTO,Nunavut
CXBA,BODO AGDM,Bodo Agdm,71214,3010730,52.124168,-110.101391,687,GovAB,CA,AUTO,Alberta
CXBD,BARRHEAD CS,Barrhead Cs,71061,3060535,54.095269,-114.451272,647.627,MSC,CA,AUTO,Alberta
CXBI,BARRIE-ORO,Barrie-Oro,71314,6117700,44.48444,-79.546408,292,MSC,CA,AUTO,Ontario
CXBK,BRATT'S LAKE CLIMATE,Bratt'S Lake Climate,71569,4010811,50.200598,-104.711399,589.795,MSC,CA,AUTO,Saskatchewan
CXBL,BAKER LAKE CLIMATE,Baker Lake Climate,71356,2300501,64.318981,-96.001642,52.562,MSC,CA,AUTO,Nunavut
CXBO,BEAUPORT,Beauport,71578,7010565,46.836997,-71.197339,10,MSC,CA,AUTO,Quebec
CXBQ,TADOULE LAKE CS,Tadoule Lake Cs,71334,5062840,58.70925,-98.500917,263.508,MSC,CA,AUTO,Manitoba
CXBR,BROCKET AGDM,Brocket Agdm,71341,3030830,49.616667,-113.816667,1092,GovAB,CA,AUTO,Alberta
CXBW,BARNWELL AGDM,Barnwell Agdm,71346,3030525,49.8,-112.3,824.24,GovAB,CA,AUTO,Alberta
CXCA,CAMERON FALLS (AUT),Cameron Falls (Aut),71291,6041110,49.1539,-88.3447,229.5,MSC,CA,AUTO,Ontario
CXCD,CLEARDALE AGDM,Cleardale Agdm,71221,3074935,56.314447,-119.745,630,GovAB,CA,AUTO,Alberta
CXCK,CARMACKS CS,Carmacks Cs,71039,2100301,62.11499,-136.191823,539.32,MSC,CA,AUTO,Yukon
CXCM,CAMBRIDGE BAY GSN,Cambridge Bay Gsn,71288,2400602,69.106583,-105.115652,20.69,MSC,CA,AUTO,Nunavut
CXCP,CHAMPION AGDM,Champion Agdm,71217,3031480,50.281945,-113.350278,1006,GovAB,CA,AUTO,Alberta
CXCS,CONSORT AGDM,Consort Agdm,71223,3011815,51.936947,-110.713056,772,GovAB,CA,AUTO,Alberta
CXDB,DEL BONITA AGDM,Del Bonita Agdm,71224,3042045,49.05,-112.816667,1310,GovAB,CA,AUTO,Alberta
CXDE,DELINE CS,Deline Cs,71503,2201022,65.208678,-123.433316,208.943,MSC,CA,AUTO,Northwest Territories
CXDI,DELHI CS,Delhi Cs,71573,6131983,42.863568,-80.545198,235.852,MSC,CA,AUTO,Ontario
CXDK,DEADMEN VALLEY,Deadmen Valley,71021,22010H0,61.257263,-124.466969,284.1,MSC,CA,AUTO,Northwest Territories
CXDW,DEERWOOD RCS,Deerwood Rcs,71840,5020725,49.399562,-98.319652,340.809,MSC,CA,AUTO,Manitoba
CXEA,EAR FALLS (AUT),Ear Falls (Aut),71295,6012199,50.630661,-93.221375,352.5,MSC,CA,AUTO,Ontario
CXEC,EDMONTON BLATCHFORD,Edmonton Blatchford,71157,3012209,53.5731,-113.5167,672,MSC,CA,AUTO,Alberta
CXEG,EDMONTON INTERNATIONAL CS,Edmonton International Cs,71155,3012206,53.30668,-113.606161,706.516,MSC,CA,AUTO,Alberta
CXET,EGBERT CS,Egbert Cs,71296,6.11E+03,44.233,-79.78,252.5,MSC,CA,AUTO,Ontario
CXFA,FANNY ISLAND,Fanny Island,71568,1022795,50.453517,-125.992895,9.8,MSC,CA,AUTO,British Columbia
CXFB,IQALUIT CLIMATE,Iqaluit Climate,71321,2402592,63.747809,-68.544293,22.841,MSC,CA,AUTO,Nunavut
CXFM,FOREMOST AGDM,Foremost Agdm,71225,3032642,49.483334,-111.486111,881,GovAB,CA,AUTO,Alberta
CXFR,FAIRVIEW AGDM,Fairview Agdm,71347,3072525,56.081391,-118.439446,654.55,GovAB,CA,AUTO,Alberta
CXFV,FORT VERMILION,Fort Vermilion,71024,3072723,58.3823,-116.0402,290.1,MSC,CA,AUTO,Alberta
CXGD,GANDER AIRPORT CS,Gander Airport Cs,71742,8401705,48.9461,-54.5669,153,MSC,CA,AUTO,Newfoundland and Labrador
CXGH,GIMLI HARBOUR CS,Gimli Harbour Cs,71577,5031041,50.631011,-96.981661,220.326,MSC,CA,AUTO,Manitoba
CXGM,GRAND MANAN SAR CS,Grand Manan Sar Cs,71030,8101925,44.7121,-66.8019,74.5,MSC,CA,AUTO,New Brunswick
CXHA,HARROW CDA AUTO,Harrow Cda Auto,71298,6133362,42.033021,-82.895994,193.01,MSC,CA,AUTO,Ontario
CXHD,HOLDEN AGDM,Holden Agdm,71227,3013340,53.185003,-112.246112,688,GovAB,CA,AUTO,Alberta
CXHF,HIGH FALLS,High Falls,71391,7033121,45.839707,-75.648197,192.326,MSC,CA,AUTO,Quebec
CXHI,HOLMAN CS,Holman Cs,71029,2502505,70.7614,-117.8,32,MSC,CA,AUTO,Northwest Territories
CXHM,HAMILTON RBG CS,Hamilton Rbg Cs,71297,6153301,43.286452,-79.905161,104.806,MSC,CA,AUTO,Ontario
CXHP,HIGH PRAIRIE AGDM,High Prairie Agdm,71226,3063165,55.395834,-116.479447,601.7,GovAB,CA,AUTO,Alberta
CXHR,HUSSAR AGDM,Hussar Agdm,71344,3023402,51.183333,-112.5,985,GovAB,CA,AUTO,Alberta
CXIB,INGONISH BEACH,Ingonish Beach,71027,8202502,46.662836,-60.406434,8.1,MSC,CA,AUTO,Nova Scotia
CXKA,KAPUSKASING CDA ON,Kapuskasing Cda On,71299,6073980,49.405219,-82.442964,224.624,MSC,CA,AUTO,Ontario
CXKE,KEMPTVILLE CS,Kemptville Cs,71300,6104027,45.005193,-75.637602,100.247,MSC,CA,AUTO,Ontario
CXKI,KIRKLAND LAKE CS,Kirkland Lake Cs,71301,6074211,48.151397,-80.011961,324.277,MSC,CA,AUTO,Ontario
CXKM,KILLAM AGDM,Killam Agdm,71228,3013640,52.8475,-111.871944,674.5,GovAB,CA,AUTO,Alberta
CXKT,KENTVILLE CDA,Kentville Cda,71671,8202810,45.067305,-64.477603,49.9,MSC,CA,AUTO,Nova Scotia
CXLB,LUNENBURG,Lunenburg,,8203210,44.36,-64.2961,3.8,MSC,CA,AUTO,Nova Scotia
CXLL,LINDBURG LANDING,Lindburg Landing,71682,220N003,61.12473,-122.852741,184,MSC,CA,AUTO,Northwest Territories
CXLT,LATERRIRE,LaterriRe,71040,7064181,48.307184,-71.128934,162.377,MSC,CA,AUTO,Quebec
CXMD,MORDEN CDA CS,Morden Cda Cs,71564,5021849,49.187556,-98.083967,298.716,MSC,CA,AUTO,Manitoba
CXMG,MANNING AGDM,Manning Agdm,71229,3074190,56.973889,-117.450834,457,GovAB,CA,AUTO,Alberta
CXMI,MCNABS ISLAND (AUT),Mcnabs Island (Aut),,8203478,44.613,-63.535,12.5,MSC,CA,AUTO,Nova Scotia
CXMM,FORT MCMURRAY CS,Fort McMurray Cs,71585,3062696,56.649963,-111.220947,369.8,MSC,CA,AUTO,Alberta
CXMM,FORT MCMURRAY CS,Fort McMurray,71689,3062697,56.649963,-111.220947,369.8,MSC,CA,AUTO,Alberta
CXMO,MORRIN AGDM,Morrin Agdm,71257,3024668,51.660278,-112.675,836,GovAB,CA,AUTO,Alberta
CXMP,MAPLE PLAINS,Maple Plains,,8305500,46.302878,-63.575821,44.5,MSC,CA,AUTO,Prince Edward Island
CXMW,MEDICINE HAT RCS,Medicine Hat Rcs,71026,3034485,50.0251,-110.7173,716.1,MSC,CA,AUTO,Alberta
CXMY,MALAY FALLS,Malay Falls,73029,8203405,44.986936,-62.483295,40.1,MSC,CA,AUTO,Nova Scotia
CXND,NORDEGG CS,Nordegg Cs,71060,3054843,52.491962,-116.040044,1317.826,MSC,CA,AUTO,Alberta
CXNM,NORTH MOUNTAIN,North Mountain,71604,8204161,46.81771,-60.671614,453,MSC,CA,AUTO,Nova Scotia
CXNP,NAPPAN AUTO,Nappan Auto,71311,8203702,45.7596,-64.2414,19.8,MSC,CA,AUTO,Nova Scotia
CXOA,OTTAWA CDA RCS,Ottawa Cda Rcs,71063,6105978,45.382369,-75.714017,79.799,MSC,CA,AUTO,Ontario
CXOL,OLDS AGDM,Olds Agdm,71258,3024925,51.758611,-114.084722,1046,GovAB,CA,AUTO,Alberta
CXOX,LA RONGE RCS,La Ronge Rcs,71586,4064149,55.146489,-105.270085,378.117,MSC,CA,AUTO,Saskatchewan
CXOY,OYEN AGDM,Oyen Agdm,71342,3024965,51.383333,-110.35,766.67,GovAB,CA,AUTO,Alberta
CXPA,PEORIA AGDM,Peoria Agdm,71348,3075160,55.621113,-118.293056,621.21,GovAB,CA,AUTO,Alberta
CXPC,PARRY SOUND CCG,Parry Sound Ccg,71172,6116257,45.344,-80.042,184.8,MSC,CA,AUTO,Ontario
CXPL,POLLOCKVILLE AGDM,Pollockville Agdm,71259,3025243,51.125278,-111.705278,750,GovAB,CA,AUTO,Alberta
CXPS,EDMONTON STONY PLAIN CS,Edmonton Stony Plain Cs,71127,301A001,53.547402,-114.107855,765.361,MSC,CA,AUTO,Alberta
CXPT,POINT PELEE CS,Point Pelee Cs,71303,613P001,41.948753,-82.519173,176.415,MSC,CA,AUTO,Ontario
CXQH,WATSON LAKE (AUT),Watson Lake (Aut),71199,2101204,60.116086,-128.831433,686.071,MSC,CA,AUTO,Yukon
CXRB,RESOLUTE CS,Resolute Cs,71018,2403505,74.706301,-94.967552,46.549,MSC,CA,AUTO,Nunavut
CXRG,RIDGETOWN RCS,Ridgetown Rcs,71307,6137154,42.453657,-81.886518,201.476,MSC,CA,AUTO,Ontario
CXRH,BERRY HILL,Berry Hill,71588,8400506,49.619944,-57.919778,114,MSC,CA,AUTO,Newfoundland and Labrador
CXRL,RICH LAKE AGDM,Rich Lake Agdm,71349,3065475,54.5,-111.7,585,GovAB,CA,AUTO,Alberta
CXSC,SCHULER AGDM,Schuler Agdm,71269,3025768,50.306944,-110.090556,800,GovAB,CA,AUTO,Alberta
CXSE,STEFANSSON ISLAND,Stefansson Island,71017,2403756,73.765789,-105.295426,8.341,MSC,CA,AUTO,Nunavut
CXSH,SHAWINIGAN,Shawinigan,71370,7018001,46.5635,-72.7333,110.9,MSC,CA,AUTO,Quebec
CXSL,SMOKY LAKE AGDM,Smoky Lake Agdm,71274,3016022,54.2775,-112.499167,680,GovAB,CA,AUTO,Alberta
CXSP,ST. PAUL AGCM,St. Paul Agcm,71275,3015676,54.011111,-111.271944,649,GovAB,CA,AUTO,Alberta
CXTD,TRACADIE,Tracadie,71308,8205895,45.6084,-61.6797,67.87,MSC,CA,AUTO,Nova Scotia
CXTH,TWO HILLS AGDM,Two Hills Agdm,71276,3016655,53.625278,-111.678333,678,GovAB,CA,AUTO,Alberta
CXTL,TATLAYOKO LAKE RCS,Tatlayoko Lake Rcs,71028,1088015,51.6746,-124.4031,876.5,MSC,CA,AUTO,British Columbia
CXTN,TUKTUT NOGAIT,Tuktut Nogait,71492,2203918,69.1989,-122.3592,553.1,MSC,CA,AUTO,Northwest Territories
CXTO,TORONTO CITY,Toronto City,71508,6158355,43.665,-79.395,113.5,MSC,CA,AUTO,Ontario
CXTP,TERRA NOVA NAT PARK CS,Terra Nova Nat Park Cs,71589,8403851,48.5569,-53.9744,107,MSC,CA,AUTO,Newfoundland and Labrador
CXTV,TRAIL VALLEY,Trail Valley,71683,220N005,68.7463,-133.5018,86.2,MSC,CA,AUTO,Northwest Territories
CXUX,SANIRAJAK,Sanirajak,71320,2402353,68.775086,-81.228675,7.542,MSC,CA,AUTO,Nunavut
CXVM,VERMILION AGDM,Vermilion Agdm,71278,3016802,53.343806,-110.881861,623,GovAB,CA,AUTO,Alberta
CXVN,VINELAND STATION RCS,Vineland Station Rcs,71171,6139148,43.190869,-79.398594,83.133,MSC,CA,AUTO,Ontario
CXVW,VALLEYVIEW AGDM,Valleyview Agdm,71277,3076680,55.098056,-117.199167,698,GovAB,CA,AUTO,Alberta
CXWB,WAGER BAY (AUT),Wager Bay (Aut),71049,2403945,65.879305,-89.445688,12.977,MSC,CA,AUTO,Nunavut
CXWF,WARFIELD RCS,Warfield Rcs,71401,1148705,49.112211,-117.738333,573.56,MSC,CA,AUTO,British Columbia
CXWG,WINNIPEG 'A' CS,Winnipeg 'A' Cs,71849,502S001,49.915758,-97.24949,240.2,MSC,CA,AUTO,Manitoba
CXWM,WRENTHAM AGDM,Wrentham Agdm,71343,3037675,49.5,-112.116667,943.94,GovAB,CA,AUTO,Alberta
CXWN,WINNIPEG THE FORKS,Winnipeg The Forks,71579,5023262,49.8883,-97.1294,231.3,MSC,CA,AUTO,Manitoba
CXYH,YOHIN,Yohin,71020,2204300,61.2419,-123.7417,205.1,MSC,CA,AUTO,Northwest Territories
CXZC,MOOSONEE RCS,Moosonee Rcs,71309,6075435,51.290444,-80.617031,10.7,MSC,CA,AUTO,Ontario
CXZV,SEPT-ILES,Sept-Iles,71279,7047914,50.218057,-66.241435,51.189,MSC,CA,AUTO,Quebec
CYAB,Arctic Bay,Arctic Bay,,2400399,73.00639,-85.04732,21.9,NAV CANADA,NC-AWOS,AUTO,Nunavut
CYAH,La Grande 4,La Grande 4,71003,7093714,53.75472,-73.67528,306.3,NAV CANADA,NC-AWOS,AUTO,Quebec
CYAM,Sault Ste Marie,Sault Ste Marie,71260,6057591,46.48506,-84.50961,192.6,NAV CANADA,NC-HWOS,MAN,Ontario
CYAS,Kangirsuk,Kangirsuk,,7113384,60.02722,-69.99917,123.7,NAV CANADA,NC-AWOS,AUTO,Quebec
CYAS,Kangirsuk,Kangirsuk,,7113383,60.02722,-69.99917,123.7,NAV CANADA,NC-HWOS,MAN,Quebec
CYAT,Attawapiskat,Attawapiskat,71653,6010400,52.92759,-82.43198,9.1,NAV CANADA,NC-AWOS,AUTO,Ontario
CYAW,Shearwater,Shearwater,,8205090,44.63,-63.5,44,,,MAN,Nova Scotia
CYAY,St. Anthony,St. Anthony,71819,8403389,51.39195,-56.08306,32.9,NAV CANADA,NC-AWOS,AUTO,Newfoundland and Labrador
CYAZ,Tofino,Tofino,,1038210,49.08212,-125.7724,24.4,NAV CANADA,NC-AWOS,AUTO,British Columbia
CYAZ,Tofino,Tofino,,1038204,49.08212,-125.7724,24.4,NAV CANADA,NC-HWOS,MAN,British Columbia
CYBB,Kugaaruk,Kugaaruk,,2303095,68.53591,-89.8054,15.5,NAV CANADA,NC-AWOS,AUTO,Nunavut
CYBB,Kugaaruk,Kugaaruk,,2303091,68.53591,-89.8054,15.5,NAV CANADA,NC-HWOS,MAN,Nunavut
CYBC,Baie-Comeau,Baie-Comeau,71691,7040444,49.1325,-68.20435,21.6,NAV CANADA,NC-AWOS,AUTO,Quebec
CYBD,Bella Coola,Bella Coola,,1060848,52.38763,-126.59577,35.7,NAV CANADA,NC-AWOS,AUTO,British Columbia
CYBD,Bella Coola,Bella Coola,,1060845,52.38763,-126.59577,35.7,NAV CANADA,NC-HWOS,MAN,British Columbia
CYBG,Bagotville,Bagotville,71727,7060400,48.33,-71,159,,,MAN,Quebec
CYBK,Baker Lake,Baker Lake,71926,2300504,64.29881,-96.07765,18.6,NAV CANADA,NC-AWOS,AUTO,Nunavut
CYBK,Baker Lake,Baker Lake,71926,2300503,64.29881,-96.07765,18.6,NAV CANADA,NC-HWOS,MAN,Nunavut
CYBL,Campbell River,Campbell River,,1021270,49.95204,-125.27305,108.8,NAV CANADA,NC-AWOS,AUTO,British Columbia
CYBL,Campbell River,Campbell River,,1021267,49.95204,-125.27305,108.8,NAV CANADA,NC-HWOS,MAN,British Columbia
CYBQ,Tadoule Lake,Tadoule Lake,71272,5062835,58.70611,-98.51222,281,NAV CANADA,NC-AWOS,AUTO,Manitoba
CYBR,Brandon,Brandon,71140,5010481,49.91,-99.95223,409.3,NAV CANADA,NC-HWOS,MAN,Manitoba
CYBU,Nipawin,Nipawin,71130,4075525,53.33273,-104.0088,371.9,NAV CANADA,NC-AWOS,AUTO,Saskatchewan
CYBV,Berens River,Berens River,,5030204,52.35889,-97.01794,222.2,NAV CANADA,NC-AWOS,AUTO,Manitoba
CYBV,Berens River,Berens River,,5030201,52.35889,-97.01794,222.2,NAV CANADA,NC-HWOS,MAN,Manitoba
CYBW,Calgary/Springbank,Calgary/Springbank,,3031109,51.10532,-114.37149,1200.9,NAV CANADA,NC-AWOS,AUTO,Alberta
CYBX,Lourdes-de-Blanc-Sablon,Lourdes-De-Blanc-Sablon,71808,7040816,51.44361,-57.18528,37.2,NAV CANADA,NC-AWOS,AUTO,Quebec
CYBX,Lourdes-de-Blanc-Sablon,Lourdes-De-Blanc-Sablon,71808,7040815,51.44361,-57.18528,37.2,NAV CANADA,NC-HWOS,MAN,Quebec
CYCA,Cartwright,Cartwright,71818,8501106,53.66917,-57.04722,12.8,NAV CANADA,NC-AWOS,AUTO,Newfoundland and Labrador
CYCB,Cambridge Bay,Cambridge Bay,71925,2400603,69.10792,-105.13712,31.1,NAV CANADA,NC-AWOS,AUTO,Nunavut
CYCB,Cambridge Bay,Cambridge Bay,71925,2400601,69.10792,-105.13712,31.1,NAV CANADA,NC-HWOS,MAN,Nunavut
CYCD,Nanaimo,Nanaimo,,1025365,49.05455,-123.87012,28,NAV CANADA,NC-AWOS,AUTO,British Columbia
CYCD,Nanaimo,Nanaimo,,1025369,49.05455,-123.87012,28,NAV CANADA,NC-HWOS,MAN,British Columbia
CYCG,Castlegar,Castlegar,,1141460,49.29623,-117.63251,495.6,NAV CANADA,NC-AWOS,AUTO,British Columbia
CYCG,Castlegar,Castlegar,,1141456,49.29623,-117.63251,495.6,NAV CANADA,NC-HWOS,MAN,British Columbia
CYCK,Chatham-Kent,Chatham-Kent,,6131414,42.30583,-82.0825,196.6,NAV CANADA,NC-AWOS,AUTO,Ontario
CYCO,Kugluktuk,Kugluktuk,71938,2300905,67.8167,-115.14391,22.6,NAV CANADA,NC-AWOS,AUTO,Nunavut
CYCO,Kugluktuk,Kugluktuk,71938,2300903,67.8167,-115.14391,22.6,NAV CANADA,NC-HWOS,MAN,Nunavut
CYCP,Blue River,Blue River,,1160902,52.11692,-119.28453,690.4,NAV CANADA,NC-AWOS,AUTO,British Columbia
CYCP,Blue River,Blue River,,1160898,52.11692,-119.28453,690.4,NAV CANADA,NC-HWOS,MAN,British Columbia
CYCQ,Chetwynd,Chetwynd,,1181513,55.68722,-121.62665,609.3,NAV CANADA,NC-AWOS,AUTO,British Columbia
CYCQ,Chetwynd,Chetwynd,,1181507,55.68722,-121.62665,609.3,NAV CANADA,NC-HWOS,MAN,British Columbia
CYCS,Chesterfield Inlet,Chesterfield Inlet,,2300710,63.34711,-90.73116,9.8,NAV CANADA,NC-AWOS,AUTO,Nunavut
CYCS,Chesterfield Inlet,Chesterfield Inlet,,2300701,63.34711,-90.73116,9.8,NAV CANADA,NC-HWOS,MAN,Nunavut
CYCX,Gagetown,Gagetown,71701,8101792,45.83,-66.43,51,,,MAN,New Brunswick
CYCY,Clyde River,Clyde River,71090,2400804,70.48592,-68.51694,26.5,NAV CANADA,NC-AWOS,AUTO,Nunavut
CYCY,Clyde River,Clyde River,71090,2400803,70.48592,-68.51694,26.5,NAV CANADA,NC-HWOS,MAN,Nunavut
CYDA,Dawson City,Dawson City,,2100407,64.04211,-139.13031,370.3,NAV CANADA,NC-AWOS,AUTO,Yukon
CYDA,Dawson City,Dawson City,,2100401,64.04211,-139.13031,370.3,NAV CANADA,NC-HWOS,MAN,Yukon
CYDB,Burwash,Burwash,71001,2100181,61.37066,-139.03995,806.2,NAV CANADA,NC-AWOS,AUTO,Yukon
CYDB,Burwash,Burwash,71001,2100180,61.37066,-139.03995,806.2,NAV CANADA,NC-HWOS,MAN,Yukon
CYDC,Princeton,Princeton,,1126518,49.46789,-120.51247,701.6,NAV CANADA,NC-AWOS,AUTO,British Columbia
CYDC,Princeton,Princeton,,1126511,49.46789,-120.51247,701.6,NAV CANADA,NC-HWOS,MAN,British Columbia
CYDF,Deer Lake,Deer Lake,71809,8401502,49.20917,-57.39444,21.9,NAV CANADA,NC-HWOS,MAN,Newfoundland and Labrador
CYDL,Dease Lake,Dease Lake,71686,1192341,58.42231,-130.03151,802.8,NAV CANADA,NC-AWOS,AUTO,British Columbia
CYDN,Dauphin,Dauphin,71036,5040689,51.10083,-100.0525,304.5,NAV CANADA,NC-AWOS,AUTO,Manitoba
CYDP,Nain,Nain,71902,8502810,56.55056,-61.68222,6.4,NAV CANADA,NC-AWOS,AUTO,Newfoundland and Labrador
CYDP,Nain,Nain,71902,8502801,56.55056,-61.68222,6.4,NAV CANADA,NC-HWOS,MAN,Newfoundland and Labrador
CYDQ,Dawson Creek,Dawson Creek,71471,1182289,55.74226,-120.18306,654.4,NAV CANADA,NC-AWOS,AUTO,British Columbia
CYED,Edmonton Namao,Edmonton Namao,71121,3012210,53.67,-113.48,688,,,MAN,Alberta
CYEG,Edmonton International,Edmonton International,71123,3012216,53.30988,-113.5795,723.3,NAV CANADA,NC-HWOS,MAN,Alberta
CYEK,Arviat,Arviat,71174,2300427,61.09397,-94.07159,10.4,NAV CANADA,NC-AWOS,AUTO,Nunavut
CYEK,Arviat,Arviat,71174,2300428,61.09397,-94.07159,10.4,NAV CANADA,NC-HWOS,MAN,Nunavut
CYEN,Estevan,Estevan,71862,4012403,49.21031,-102.96574,580.3,NAV CANADA,NC-AWOS,AUTO,Saskatchewan
CYER,Fort Severn,Fort Severn,71099,6012501,56.01897,-87.67621,15.8,NAV CANADA,NC-AWOS,AUTO,Ontario
CYET,Edson,Edson,71167,3062239,53.57889,-116.465,927.5,NAV CANADA,NC-AWOS,AUTO,Alberta
CYEV,Inuvik-Zubko,Inuvik-Zubko,71957,2202571,68.30378,-133.48312,67.7,NAV CANADA,NC-HWOS,MAN,Northwest Territories
CYFB,Iqaluit,Iqaluit,71909,2402596,63.75657,-68.55611,33.5,NAV CANADA,NC-HWOS,MAN,Nunavut
CYFC,Fredericton,Fredericton,71700,8101505,45.86889,-66.53722,20.4,NAV CANADA,NC-AWOS,AUTO,New Brunswick
CYFO,Flin Flon,Flin Flon,,5050973,54.67807,-101.68189,304.2,NAV CANADA,NC-AWOS,AUTO,Manitoba
CYFO,Flin Flon,Flin Flon,,5050961,54.67807,-101.68189,304.2,NAV CANADA,NC-HWOS,MAN,Manitoba
CYFR,Fort Resolution,Fort Resolution,,2202010,61.18081,-113.68965,160.6,NAV CANADA,NC-AWOS,AUTO,Northwest Territories
CYFR,Fort Resolution,Fort Resolution,,2202001,61.18081,-113.68965,160.6,NAV CANADA,NC-HWOS,MAN,Northwest Territories
CYFS,Fort Simpson,Fort Simpson,71946,2202104,61.76025,-121.23801,169.5,NAV CANADA,NC-AWOS,AUTO,Northwest Territories
CYFS,Fort Simpson,Fort Simpson,71946,2202103,61.76025,-121.23801,169.5,NAV CANADA,NC-HWOS,MAN,Northwest Territories
CYFT,Makkovik,Makkovik,,8502580,55.07722,-59.1875,70.4,NAV CANADA,NC-AWOS,AUTO,Newfoundland and Labrador
CYFT,Makkovik,Makkovik,,8502588,55.07722,-59.1875,70.4,NAV CANADA,NC-HWOS,MAN,Newfoundland and Labrador
CYGE,Golden,Golden,,1173214,51.29917,-116.9825,785.2,NAV CANADA,NC-AWOS,AUTO,British Columbia
CYGE,Golden,Golden,,1173209,51.29917,-116.9825,785.2,NAV CANADA,NC-HWOS,MAN,British Columbia
CYGH,Fort Good Hope,Fort Good Hope,,2201406,66.24063,-128.6476,81.4,NAV CANADA,NC-AWOS,AUTO,Northwest Territories
CYGH,Fort Good Hope,Fort Good Hope,,2201401,66.24063,-128.6476,81.4,NAV CANADA,NC-HWOS,MAN,Northwest Territories
CYGK,Kingston,Kingston,,6104152,44.22587,-76.5966,92.4,NAV CANADA,NC-AWOS,AUTO,Ontario
CYGK,Kingston,Kingston,,6104149,44.22587,-76.5966,92.4,NAV CANADA,NC-HWOS,MAN,Ontario
CYGL,La Grande Riviere,La Grande Riviere,71827,7093716,53.62528,-77.70417,195.1,NAV CANADA,NC-HWOS,MAN,Quebec
CYGP,Gaspe,Gaspe,71188,7052602,48.77528,-64.47972,34.1,NAV CANADA,NC-AWOS,AUTO,Quebec
CYGP,Gaspe,Gaspe,71188,7052601,48.77528,-64.47972,34.1,NAV CANADA,NC-HWOS,MAN,Quebec
CYGQ,Geraldton,Geraldton,71834,6042718,49.77869,-86.93855,348.4,NAV CANADA,NC-AWOS,AUTO,Ontario
CYGR,Iles-de-la-Madeleine,Iles-De-La-Madeleine,71709,7053254,47.425,-61.77806,10.7,NAV CANADA,NC-AWOS,AUTO,Quebec
CYGR,Iles-de-la-Madeleine,Iles-De-La-Madeleine,71709,7053250,47.425,-61.77806,10.7,NAV CANADA,NC-HWOS,MAN,Quebec
CYGT,Igloolik,Igloolik,,2402546,69.36466,-81.81648,52.7,NAV CANADA,NC-AWOS,AUTO,Nunavut
CYGT,Igloolik,Igloolik,,2402541,69.36466,-81.81648,52.7,NAV CANADA,NC-HWOS,MAN,Nunavut
CYGV,Havre St-Pierre,Havre St-Pierre,71584,7043019,50.28194,-63.61139,38.1,NAV CANADA,NC-AWOS,AUTO,Quebec
CYGW,Kuujjuarapik,Kuujjuarapik,,7103537,55.28194,-77.76528,12.2,NAV CANADA,NC-AWOS,AUTO,Quebec
CYGX,Gillam,Gillam,71912,5061022,56.35772,-94.7107,145.1,NAV CANADA,NC-HWOS,MAN,Manitoba
CYHA,Quaqtaq,Quaqtaq,,7116273,61.04639,-69.61777,32.3,NAV CANADA,NC-AWOS,AUTO,Quebec
CYHA,Quaqtaq,Quaqtaq,,7116271,61.04639,-69.61777,32.3,NAV CANADA,NC-HWOS,MAN,Quebec
CYHD,Dryden Regional,Dryden Regional,71527,6032125,49.83167,-92.74416,412.7,NAV CANADA,NC-AWOS,AUTO,Ontario
CYHE,Hope,Hope,71187,1113542,49.36833,-121.49806,39,NAV CANADA,NC-AWOS,AUTO,British Columbia
CYHI,Ulukhaktok/Holman,Ulukhaktok/Holman,,2502503,70.76283,-117.806,36,NAV CANADA,NC-AWOS,AUTO,Northwest Territories
CYHK,Gjoa Haven,Gjoa Haven,71597,2302337,68.63556,-95.85028,46.9,NAV CANADA,NC-AWOS,AUTO,Nunavut
CYHK,Gjoa Haven,Gjoa Haven,71597,2302336,68.63556,-95.85028,46.9,NAV CANADA,NC-HWOS,MAN,Nunavut
CYHM,Hamilton,Hamilton,71263,6153193,43.17366,-79.93508,237.7,NAV CANADA,NC-HWOS,MAN,Ontario
CYHU,Montreal/St-Hubert,Montreal/St-Hubert,71371,7027329,45.51806,-73.41694,27.4,NAV CANADA,NC-AWOS,AUTO,Quebec
CYHY,Hay River,Hay River,71935,2202403,60.83978,-115.7828,164.9,NAV CANADA,NC-AWOS,AUTO,Northwest Territories
CYHY,Hay River,Hay River,71935,2202401,60.83978,-115.7828,164.9,NAV CANADA,NC-HWOS,MAN,Northwest Territories
CYHZ,Halifax International,Halifax International,71395,8202249,44.88119,-63.50871,145.4,NAV CANADA,NC-AWOS,AUTO,Nova Scotia
CYHZ,Halifax International,Halifax International,71395,8202251,44.88119,-63.50871,145.4,NAV CANADA,NC-HWOS,MAN,Nova Scotia
CYIK,Ivujivik,Ivujivik,,7103329,62.41722,-77.92528,38.7,NAV CANADA,NC-AWOS,AUTO,Quebec
CYIK,Ivujivik,Ivujivik,,7103328,62.41722,-77.92528,38.7,NAV CANADA,NC-HWOS,MAN,Quebec
CYIN,Clinton/Bleiber Ranch,Clinton/Bleiber Ranch,71717,1161662,51.25,-121.68333,1126.2,NAV CANADA,NC-AWOS,AUTO,British Columbia
CYIO,Pond Inlet,Pond Inlet,71095,2403206,72.68951,-77.96893,61.6,NAV CANADA,NC-AWOS,AUTO,Nunavut
CYIO,Pond Inlet,Pond Inlet,71095,2403205,72.68951,-77.96893,61.6,NAV CANADA,NC-HWOS,MAN,Nunavut
CYIV,Island Lake,Island Lake,71145,5061374,53.85713,-94.65367,235.3,NAV CANADA,NC-AWOS,AUTO,Manitoba
CYJF,Fort Liard,Fort Liard,,2201581,60.23556,-123.47,215.8,NAV CANADA,NC-AWOS,AUTO,Northwest Territories
CYJF,Fort Liard,Fort Liard,,2201576,60.23556,-123.47,215.8,NAV CANADA,NC-HWOS,MAN,Northwest Territories
CYJT,Stephenville,Stephenville,71815,8403801,48.54145,-58.54991,24.7,NAV CANADA,NC-HWOS,MAN,Newfoundland and Labrador
CYKA,Kamloops,Kamloops,71887,1163781,50.70251,-120.44861,345.3,NAV CANADA,NC-HWOS,MAN,British Columbia
CYKD,Aklavik,Aklavik,,2200105,68.2234,-135.00578,6.4,NAV CANADA,NC-AWOS,AUTO,Northwest Territories
CYKD,Aklavik,Aklavik,,2200101,68.2234,-135.00578,6.4,NAV CANADA,NC-HWOS,MAN,Northwest Territories
CYKF,Kitchener/Waterloo,Kitchener/Waterloo,71368,6144239,43.46077,-80.37872,321.3,NAV CANADA,NC-AWOS,AUTO,Ontario
CYKG,Kangiqsujuaq,Kangiqsujuaq,,7113380,61.58861,-71.92944,157.6,NAV CANADA,NC-AWOS,AUTO,Quebec
CYKG,Kangiqsujuaq,Kangiqsujuaq,,7113379,61.58861,-71.92944,157.6,NAV CANADA,NC-HWOS,MAN,Quebec
CYKJ,Key Lake,Key Lake,71499,4063757,57.25639,-105.6175,513.9,NAV CANADA,NC-AWOS,AUTO,Saskatchewan
CYKL,Schefferville,Schefferville,71921,7117823,54.80528,-66.80527,520.9,NAV CANADA,NC-AWOS,AUTO,Quebec
CYKO,Akulivik,Akulivik,,7100072,60.81861,-78.14861,23.2,NAV CANADA,NC-AWOS,AUTO,Quebec
CYKO,Akulivik,Akulivik,,7100071,60.81861,-78.14861,23.2,NAV CANADA,NC-HWOS,MAN,Quebec
CYKP,Ogoki Post,Ogoki Post,71652,6075786,51.65811,-85.90111,181.1,NAV CANADA,NC-AWOS,AUTO,Ontario
CYKQ,Waskaganish,Waskaganish,,7098898,51.47333,-78.75833,24.1,NAV CANADA,NC-AWOS,AUTO,Quebec
CYKQ,Waskaganish,Waskaganish,,7098896,51.47333,-78.75833,24.1,NAV CANADA,NC-HWOS,MAN,Quebec
CYKY,Kindersley,Kindersley,71129,4043899,51.51515,-109.18056,693.7,NAV CANADA,NC-AWOS,AUTO,Saskatchewan
CYKY,Kindersley,Kindersley,71129,4043901,51.51515,-109.18056,693.7,NAV CANADA,NC-HWOS,MAN,Saskatchewan
CYKZ,Toronto/Buttonville,Toronto/Buttonville,71639,6158409,43.8608,-79.3686,198.1,NAV CANADA,NC-AWOS,AUTO,Ontario
CYLA,Aupaluk,Aupaluk,,7110601,59.29667,-69.59972,36.9,NAV CANADA,NC-AWOS,AUTO,Quebec
CYLA,Aupaluk,Aupaluk,,7110600,59.29667,-69.59972,36.9,NAV CANADA,NC-HWOS,MAN,Quebec
CYLC,Kimmirut,Kimmirut,,2402673,62.84806,-69.87719,51.5,NAV CANADA,NC-AWOS,AUTO,Nunavut
CYLC,Kimmirut,Kimmirut,,2402671,62.84806,-69.87719,51.5,NAV CANADA,NC-HWOS,MAN,Nunavut
CYLD,Chapleau,Chapleau,71642,6061365,47.82018,-83.34689,448.1,NAV CANADA,NC-AWOS,AUTO,Ontario
CYLD,Chapleau,Chapleau,71642,6061362,47.82018,-83.34689,448.1,NAV CANADA,NC-HWOS,MAN,Ontario
CYLH,Lansdowne House,Lansdowne House,,6014351,52.19542,-87.93408,254.2,NAV CANADA,NC-AWOS,AUTO,Ontario
CYLJ,Meadow Lake,Meadow Lake,71125,4065063,54.12539,-108.5229,480.7,NAV CANADA,NC-AWOS,AUTO,Saskatchewan
CYLJ,Meadow Lake,Meadow Lake,71125,4065057,54.12539,-108.5229,480.7,NAV CANADA,NC-HWOS,MAN,Saskatchewan
CYLK,Lutselk'e,Lutselk'E,,2202690,62.41819,-110.68224,178.6,NAV CANADA,NC-AWOS,AUTO,Northwest Territories
CYLK,Lutselk'e,Lutselk'E,,2202687,62.41819,-110.68224,178.6,NAV CANADA,NC-HWOS,MAN,Northwest Territories
CYLL,Lloydminster,Lloydminster,71871,3013959,53.31058,-110.07416,668.7,NAV CANADA,NC-AWOS,AUTO,Alberta
CYLL,Lloydminster,Lloydminster,71871,3013958,53.31058,-110.07416,668.7,NAV CANADA,NC-HWOS,MAN,Alberta
CYLT,Alert,Alert,,2400302,82.52,-62.28,31,,,MAN,Nunavut
CYLU,Kangiqsualujjuaq,Kangiqsualujjuaq,,7113391,58.71139,-65.99277,66.1,NAV CANADA,NC-AWOS,AUTO,Quebec
CYLU,Kangiqsualujjuaq,Kangiqsualujjuaq,,7113390,58.71139,-65.99277,66.1,NAV CANADA,NC-HWOS,MAN,Quebec
CYLW,Kelowna International,Kelowna International,71203,1123939,49.95722,-119.37778,432.8,NAV CANADA,NC-AWOS,AUTO,British Columbia
CYMA,Mayo,Mayo,71965,2100702,63.61639,-135.86833,503.8,NAV CANADA,NC-AWOS,AUTO,Yukon
CYMA,Mayo,Mayo,71965,2100701,63.61639,-135.86833,503.8,NAV CANADA,NC-HWOS,MAN,Yukon
CYMH,Mary's Harbour,Mary'S Harbour,71339,8502592,52.30282,-55.84784,10.7,NAV CANADA,NC-AWOS,AUTO,Newfoundland and Labrador
CYMJ,Moose Jaw,Moose Jaw,,4015320,50.33,-105.57,577,,,MAN,Saskatchewan
CYMM,Fort.McMurray,Fort.Mcmurray,71689,3062697,56.6532,-111.22333,369.1,NAV CANADA,NC-AWOS,AUTO,Alberta
CYMO,Moosonee,Moosonee,71398,6075420,51.29203,-80.60834,9.1,NAV CANADA,NC-AWOS,AUTO,Ontario
CYMT,Chibougamau/Chapais,Chibougamau/Chapais,71822,7091409,49.77186,-74.52797,387.1,NAV CANADA,NC-AWOS,AUTO,Quebec
CYMU,Umiujaq,Umiujaq,,7108564,56.53611,-76.51833,76.5,NAV CANADA,NC-AWOS,AUTO,Quebec
CYMX,Montreal/Mirabel International,Montreal/Mirabel International,,7034900,45.68042,-74.03871,82.6,NAV CANADA,NC-HWOS,MAN,Quebec
CYNA,Natashquan,Natashquan,71513,7045398,50.19,-61.78889,11.9,NAV CANADA,NC-AWOS,AUTO,Quebec
CYNC,Wemindji,Wemindji,,7098908,53.01056,-78.83111,20.1,NAV CANADA,NC-AWOS,AUTO,Quebec
CYNC,Wemindji,Wemindji,,7098905,53.01056,-78.83111,20.1,NAV CANADA,NC-HWOS,MAN,Quebec
CYND,Ottawa/Gatineau,Ottawa/Gatineau,,7032685,45.52167,-75.56361,64.3,NAV CANADA,NC-AWOS,AUTO,Quebec
CYND,Ottawa/Gatineau,Ottawa/Gatineau,,7032682,45.52167,-75.56361,64.3,NAV CANADA,NC-HWOS,MAN,Quebec
CYNE,Norway House,Norway House,71410,5062040,53.95829,-97.84416,223.7,NAV CANADA,NC-AWOS,AUTO,Manitoba
CYNM,Matagami,Matagami,71947,7094636,49.76167,-77.80278,279.8,NAV CANADA,NC-AWOS,AUTO,Quebec
CYOC,Old Crow,Old Crow,,2100807,67.57008,-139.83989,248.7,NAV CANADA,NC-AWOS,AUTO,Yukon
CYOC,Old Crow,Old Crow,,2100801,67.57008,-139.83989,248.7,NAV CANADA,NC-HWOS,MAN,Yukon
CYOD,Cold Lake,Cold Lake,71120,3081680,54.41,-110.28,541,,,MAN,Alberta
CYOJ,High Level,High Level,71066,3073140,58.62158,-117.16467,338,NAV CANADA,NC-AWOS,AUTO,Alberta
CYOJ,High Level,High Level,71066,3073141,58.62158,-117.16467,338,NAV CANADA,NC-HWOS,MAN,Alberta
CYOO,Oshawa,Oshawa,71697,6155875,43.92283,-78.89674,140.2,NAV CANADA,NC-AWOS,AUTO,Ontario
CYOW,Ottawa-Macdonald-Cartier International,Ottawa-Macdonald-Cartier International,71628,6106001,45.3225,-75.66727,114.9,NAV CANADA,NC-HWOS,MAN,Ontario
CYOY,Valcartier,Valcartier,71716,7018574,46.9,-71.5,168,,,MAN,Quebec
CYPA,Prince Albert,Prince Albert,71869,4056241,53.21462,-105.67349,428.2,NAV CANADA,NC-HWOS,MAN,Saskatchewan
CYPC,Paulatuk,Paulatuk,,2203055,69.36066,-124.07571,4.6,NAV CANADA,NC-AWOS,AUTO,Northwest Territories
CYPC,Paulatuk,Paulatuk,,2203056,69.36066,-124.07571,4.6,NAV CANADA,NC-HWOS,MAN,Northwest Territories
CYPD,Port Hawkesbury,Port Hawkesbury,71041,8204495,45.65667,-61.36806,113.7,NAV CANADA,NC-AWOS,AUTO,Nova Scotia
CYPE,Peace River,Peace River,71068,3075041,56.22729,-117.44708,570.6,NAV CANADA,NC-HWOS,MAN,Alberta
CYPG,Portage Southport,Portage Southport,,5012320,49.9,-98.27,270,,,MAN,Manitoba
CYPH,Inukjuak,Inukjuak,71306,7103280,58.47194,-78.07694,26.2,NAV CANADA,NC-AWOS,AUTO,Quebec
CYPL,Pickle Lake,Pickle Lake,71845,6016528,51.44639,-90.21417,386.5,NAV CANADA,NC-AWOS,AUTO,Ontario
CYPO,Peawanuck,Peawanuck,,6016298,54.98806,-85.44334,52.7,NAV CANADA,NC-AWOS,AUTO,Ontario
CYPQ,Peterborough,Peterborough,71436,6166415,44.23054,-78.3632,191.4,NAV CANADA,NC-AWOS,AUTO,Ontario
CYPR,Prince Rupert,Prince Rupert,71022,1066482,54.28589,-130.44467,35.4,NAV CANADA,NC-AWOS,AUTO,British Columbia
CYPW,Powell River,Powell River,,1046396,49.83408,-124.50034,129.5,NAV CANADA,NC-AWOS,AUTO,British Columbia
CYPW,Powell River,Powell River,,1046395,49.83408,-124.50034,129.5,NAV CANADA,NC-HWOS,MAN,British Columbia
CYPX,Puvirnituq,Puvirnituq,,7106223,60.05211,-77.28761,25.3,NAV CANADA,NC-AWOS,AUTO,Quebec
CYPY,Fort Chipewyan,Fort Chipewyan,71305,3072655,58.76722,-111.11723,232,NAV CANADA,NC-AWOS,AUTO,Alberta
CYQA,Muskoka,Muskoka,71532,6115529,44.97472,-79.30333,281,NAV CANADA,NC-AWOS,AUTO,Ontario
CYQB,Quebec-Lesage International,Quebec-Lesage International,71714,7016293,46.7912,-71.39331,74.4,NAV CANADA,NC-HWOS,MAN,Quebec
CYQD,The Pas,The Pas,71867,5052882,53.97129,-101.09105,270.7,NAV CANADA,NC-AWOS,AUTO,Manitoba
CYQF,Red Deer Regional,Red Deer Regional,71878,3025484,52.18229,-113.89448,904.6,NAV CANADA,NC-AWOS,AUTO,Alberta
CYQG,Windsor,Windsor,71538,6139530,42.27556,-82.95556,189.6,NAV CANADA,NC-AWOS,AUTO,Ontario
CYQH,Watson Lake,Watson Lake,,2101202,60.11644,-128.82242,687.3,NAV CANADA,NC-AWOS,AUTO,Yukon
CYQH,Watson Lake,Watson Lake,,2101201,60.11644,-128.82242,687.3,NAV CANADA,NC-HWOS,MAN,Yukon
CYQI,Yarmouth,Yarmouth,71603,8206496,43.8325,-66.08611,42.7,NAV CANADA,NC-AWOS,AUTO,Nova Scotia
CYQI,Yarmouth,Yarmouth,71603,8206495,43.8325,-66.08611,42.7,NAV CANADA,NC-HWOS,MAN,Nova Scotia
CYQK,Kenora,Kenora,71850,6034076,49.78833,-94.36311,409.7,NAV CANADA,NC-HWOS,MAN,Ontario
CYQL,Lethbridge,Lethbridge,71267,3033875,49.63028,-112.79972,929.3,NAV CANADA,NC-AWOS,AUTO,Alberta
CYQL,Lethbridge,Lethbridge,71267,3033881,49.63028,-112.79972,929.3,NAV CANADA,NC-HWOS,MAN,Alberta
CYQM,Moncton International,Moncton International,71705,8103202,46.11611,-64.67861,70.7,NAV CANADA,NC-AWOS,AUTO,New Brunswick
CYQM,Moncton-Greater.Moncton.LeBlanc International,Moncton-Greater.Moncton.LeBlanc International,71705,8103201,46.11611,-64.67861,70.7,NAV CANADA,NC-HWOS,MAN,New Brunswick
CYQQ,Comox,Comox,71893,1021830,49.71,-124.89,26,,,MAN,British Columbia
CYQR,Regina International,Regina International,71514,4016566,50.43219,-104.66605,577.6,NAV CANADA,NC-HWOS,MAN,Saskatchewan
CYQT,Thunder Bay,Thunder Bay,71072,6048260,48.372,-89.3217,199.3,NAV CANADA,NC-AWOS,AUTO,Ontario
CYQT,Thunder Bay,Thunder Bay,71072,6048262,48.372,-89.3217,199.3,NAV CANADA,NC-HWOS,MAN,Ontario
CYQU,Grande Prairie,Grande Prairie,71940,3072921,55.17997,-118.88469,669.3,NAV CANADA,NC-HWOS,MAN,Alberta
CYQV,Yorkton,Yorkton,71292,4019075,51.26481,-102.46132,498.3,NAV CANADA,NC-AWOS,AUTO,Saskatchewan
CYQW,North Battleford,North Battleford,71876,4045695,52.76925,-108.24372,548.3,NAV CANADA,NC-AWOS,AUTO,Saskatchewan
CYQX,Gander International,Gander International,71803,8401703,48.93702,-54.56813,151.2,NAV CANADA,NC-HWOS,MAN,Newfoundland and Labrador
CYQY,Sydney,Sydney,71707,8205703,46.16139,-60.04806,61.9,NAV CANADA,NC-AWOS,AUTO,Nova Scotia
CYQY,Sydney,Sydney,71707,8205701,46.16139,-60.04806,61.9,NAV CANADA,NC-HWOS,MAN,Nova Scotia
CYQZ,Quesnel,Quesnel,71192,1096629,53.02608,-122.51037,545,NAV CANADA,NC-AWOS,AUTO,British Columbia
CYRA,Gameti/Rae Lakes,Gameti/Rae Lakes,,2203365,64.11612,-117.30972,218.2,NAV CANADA,NC-AWOS,AUTO,Northwest Territories
CYRA,Gameti/Rae Lakes,Gameti/Rae Lakes,,2203362,64.11612,-117.30972,218.2,NAV CANADA,NC-HWOS,MAN,Northwest Territories
CYRB,Resolute Bay,Resolute Bay,71924,2403497,74.71691,-94.96934,67.7,NAV CANADA,NC-AWOS,AUTO,Nunavut
CYRB,Resolute Bay,Resolute Bay,71924,2403498,74.71691,-94.96934,67.7,NAV CANADA,NC-HWOS,MAN,Nunavut
CYRJ,Roberval,Roberval,71728,7066687,48.52,-72.26583,178.6,NAV CANADA,NC-AWOS,AUTO,Quebec
CYRJ,Roberval,Roberval,71728,7066686,48.52,-72.26583,178.6,NAV CANADA,NC-HWOS,MAN,Quebec
CYRL,Red Lake,Red Lake,71854,6016971,51.06709,-93.79305,385.9,NAV CANADA,NC-AWOS,AUTO,Ontario
CYRL,Red Lake,Red Lake,71854,6016970,51.06709,-93.79305,385.9,NAV CANADA,NC-HWOS,MAN,Ontario
CYRQ,Trois-Rivieres,Trois-Rivieres,,7018561,46.35157,-72.68046,60.7,NAV CANADA,NC-AWOS,AUTO,Quebec
CYRT,Rankin Inlet,Rankin Inlet,71083,2303405,62.81066,-92.11462,32.3,NAV CANADA,NC-HWOS,MAN,Nunavut
CYRV,Revelstoke,Revelstoke,71685,1176745,50.96689,-118.18447,444.1,NAV CANADA,NC-AWOS,AUTO,British Columbia
CYSB,Sudbury,Sudbury,71730,6068153,46.62555,-80.79784,348.4,NAV CANADA,NC-HWOS,MAN,Ontario
CYSC,Sherbrooke,Sherbrooke,71610,7028123,45.43861,-71.69139,241.4,NAV CANADA,NC-AWOS,AUTO,Quebec
CYSF,Stony Rapids,Stony Rapids,71132,4067799,59.25028,-105.84139,244.1,NAV CANADA,NC-AWOS,AUTO,Saskatchewan
CYSJ,Saint.John,Saint.John,71609,8104901,45.31616,-65.89012,108.8,NAV CANADA,NC-HWOS,MAN,New Brunswick
CYSK,Sanikiluaq,Sanikiluaq,,2303660,56.5369,-79.25013,33.5,NAV CANADA,NC-AWOS,AUTO,Nunavut
CYSK,Sanikiluaq,Sanikiluaq,,2303666,56.5369,-79.25013,33.5,NAV CANADA,NC-HWOS,MAN,Nunavut
CYSM,Fort Smith,Fort Smith,71934,2202203,60.02028,-111.96195,205.1,NAV CANADA,NC-AWOS,AUTO,Northwest Territories
CYSM,Fort Smith,Fort Smith,71934,2202201,60.02028,-111.96195,205.1,NAV CANADA,NC-HWOS,MAN,Northwest Territories
CYSN,St. Catharines,St. Catharines,,6137304,43.19167,-79.17167,98.1,NAV CANADA,NC-AWOS,AUTO,Ontario
CYSN,St. Catharines,St. Catharines,,6137286,43.19167,-79.17167,98.1,NAV CANADA,NC-HWOS,MAN,Ontario
CYSP,Marathon,Marathon,,6044967,48.75528,-86.34444,314.6,NAV CANADA,NC-AWOS,AUTO,Ontario
CYSP,Marathon,Marathon,,6044963,48.75528,-86.34444,314.6,NAV CANADA,NC-HWOS,MAN,Ontario
CYSY,Sachs Harbour,Sachs Harbour,,2503649,71.99365,-125.24147,86.3,NAV CANADA,NC-AWOS,AUTO,Northwest Territories
CYSY,Sachs Harbour,Sachs Harbour,,2503651,71.99365,-125.24147,86.3,NAV CANADA,NC-HWOS,MAN,Northwest Territories
CYTE,Kinngait,Kinngait,71366,2400637,64.23023,-76.52486,48.2,NAV CANADA,NC-AWOS,AUTO,Nunavut
CYTE,Kinngait,Kinngait,71366,2400633,64.23023,-76.52486,48.2,NAV CANADA,NC-HWOS,MAN,Nunavut
CYTH,Thompson,Thompson,71079,5062921,55.80333,-97.8625,224,NAV CANADA,NC-HWOS,MAN,Manitoba
CYTL,Big Trout Lake,Big Trout Lake,71675,6010735,53.81789,-89.89692,222.5,NAV CANADA,NC-AWOS,AUTO,Ontario
CYTQ,Tasiujaq,Tasiujaq,,7118366,58.66778,-69.95583,36.9,NAV CANADA,NC-AWOS,AUTO,Quebec
CYTQ,Tasiujaq,Tasiujaq,,7118365,58.66778,-69.95583,36.9,NAV CANADA,NC-HWOS,MAN,Quebec
CYTR,Trenton,Trenton,71621,6158875,44.12,-77.53,86,,,MAN,Ontario
CYTS,Timmins,Timmins,71739,6078286,48.57066,-81.37664,295,NAV CANADA,NC-HWOS,MAN,Ontario
CYTZ,Toronto City Centre,Toronto City Centre,71265,6158359,43.6274,-79.3962,76.8,NAV CANADA,NC-AWOS,AUTO,Ontario
CYUA,SHINGLE POINT,Shingle Point,71968,2100950,68.95,-137.2167,49,DND,DND-AWOS,AUTO,Yukon
CYUB,Tuktoyaktuk,Tuktoyaktuk,,2203911,69.43324,-133.02635,4.3,NAV CANADA,NC-AWOS,AUTO,Northwest Territories
CYUB,Tuktoyaktuk,Tuktoyaktuk,,2203913,69.43324,-133.02635,4.3,NAV CANADA,NC-HWOS,MAN,Northwest Territories
CYUL,Montreal/Trudeau International,Montreal/Trudeau International,71627,7025251,45.47046,-73.74093,36,NAV CANADA,NC-HWOS,MAN,Quebec
CYUS,SHEPHERD BAY,Shepherd Bay,71911,2303685,68.79448,-93.43993,43,DND,DND-AWOS,AUTO,Nunavut
CYUT,Naujaat,Naujaat,,2403495,66.52067,-86.22474,22.9,NAV CANADA,NC-AWOS,AUTO,Nunavut
CYUT,Naujaat,Naujaat,,2403491,66.52067,-86.22474,22.9,NAV CANADA,NC-HWOS,MAN,Nunavut
CYUX,Sanirajak,Sanirajak,71293,2402354,68.77577,-81.24245,9.1,NAV CANADA,NC-AWOS,AUTO,Nunavut
CYUX,Sanirajak,Sanirajak,71293,2402356,68.77577,-81.24245,9.1,NAV CANADA,NC-HWOS,MAN,Nunavut
CYUY,Rouyn-Noranda,Rouyn-Noranda,,7086719,48.20619,-78.83559,301.1,NAV CANADA,NC-HWOS,MAN,Quebec
CYVC,La Ronge,La Ronge,71922,4064155,55.15139,-105.26195,379.2,NAV CANADA,NC-HWOS,MAN,Saskatchewan
CYVL,Colville Lake,Colville Lake,,2200827,67.02111,-126.12861,274,NAV CANADA,NC-AWOS,AUTO,Northwest Territories
CYVM,Qikiqtarjuaq,Qikiqtarjuaq,71338,2400577,67.54656,-64.03156,5.5,NAV CANADA,NC-AWOS,AUTO,Nunavut
CYVM,Qikiqtarjuaq,Qikiqtarjuaq,71338,2400576,67.54656,-64.03156,5.5,NAV CANADA,NC-HWOS,MAN,Nunavut
CYVO,Val d'Or,Val D'Or,71941,7098605,48.05333,-77.78278,336.8,NAV CANADA,NC-AWOS,AUTO,Quebec
CYVO,Val d'Or,Val D'Or,71941,7098606,48.05333,-77.78278,336.8,NAV CANADA,NC-HWOS,MAN,Quebec
CYVP,Kuujjuaq,Kuujjuaq,71906,7113535,58.09611,-68.42694,39.9,NAV CANADA,NC-HWOS,MAN,Quebec
CYVQ,Norman Wells,Norman Wells,71043,2202801,65.28133,-126.79857,72.2,NAV CANADA,NC-HWOS,MAN,Northwest Territories
CYVR,Vancouver International,Vancouver International,71892,1108395,49.1947,-123.18397,4,NAV CANADA,NC-HWOS,MAN,British Columbia
CYVT,Buffalo Narrows,Buffalo Narrows,,4060988,55.84194,-108.41761,433.7,NAV CANADA,NC-AWOS,AUTO,Saskatchewan
CYVV,Wiarton,Wiarton,71633,6119498,44.74583,-81.10722,221.9,NAV CANADA,NC-AWOS,AUTO,Ontario
CYVV,Wiarton,Wiarton,71633,6119499,44.74583,-81.10722,221.9,NAV CANADA,NC-HWOS,MAN,Ontario
CYWA,Petawawa,Petawawa,71625,6106398,45.95,-77.32,130,,,MAN,Ontario
CYWE,Wekweeti,Wekweeti,,2203980,64.19076,-114.07681,368.2,NAV CANADA,NC-AWOS,AUTO,Northwest Territories
CYWG,Winnipeg-Richardson International,Winnipeg-Richardson International,71852,5023227,49.91001,-97.2401,239,NAV CANADA,NC-HWOS,MAN,Manitoba
CYWH,Victoria Harbour,Victoria Harbour,,1018633,48.42278,-123.3875,0,NAV CANADA,NC-AWOS,AUTO,British Columbia
CYWH,Victoria Harbour,Victoria Harbour,,1018619,48.42278,-123.3875,0,NAV CANADA,NC-HWOS,MAN,British Columbia
CYWJ,Deline,Deline,,2201023,65.21118,-123.43652,214,NAV CANADA,NC-AWOS,AUTO,Northwest Territories
